{
  "source": {
    "name": "서울시 공공자전거 따릉이 대여소 정보",
    "url": "https://data.seoul.go.kr/dataList/OA-13252/F/1/datasetView.do",
    "asOf": "2026-06",
    "publishedAt": "2026-07-15",
    "operationalStatusUrl": "https://www.bikeseoul.com/app/station/getStationRealtimeStatus.do",
    "operationalSnapshotAt": "2026-07-20",
    "license": "공공누리 1유형"
  },
  "stations": [
    {
      "id": "102",
      "name": "102. 망원역 1번출구 앞",
      "address": "서울특별시 마포구 월드컵로 72",
      "latitude": 37.5556488,
      "longitude": 126.91062927
    },
    {
      "id": "103",
      "name": "103. 망원역 2번출구 앞",
      "address": "서울특별시 마포구 월드컵로 79",
      "latitude": 37.55495071,
      "longitude": 126.91083527
    },
    {
      "id": "104",
      "name": "104. 합정역 1번출구 앞",
      "address": "서울특별시 마포구 양화로 59",
      "latitude": 37.55073929,
      "longitude": 126.91508484
    },
    {
      "id": "105",
      "name": "105. 합정역 5번출구 앞",
      "address": "서울특별시 마포구 양화로 48",
      "latitude": 37.55000687,
      "longitude": 126.91482544
    },
    {
      "id": "106",
      "name": "106. 합정역 7번출구 앞",
      "address": "서울특별시 마포구 독막로 4",
      "latitude": 37.54864502,
      "longitude": 126.91282654
    },
    {
      "id": "107",
      "name": "107. 수협 연남동지점",
      "address": "서울특별시 마포구 월드컵북로 35",
      "latitude": 37.55784607,
      "longitude": 126.91871643
    },
    {
      "id": "108",
      "name": "108. 서교동 사거리",
      "address": "서울특별시 마포구 양화로 93",
      "latitude": 37.55274582,
      "longitude": 126.91861725
    },
    {
      "id": "111",
      "name": "111. 상수역 2번출구 앞",
      "address": "서울특별시 마포구 와우산로 40",
      "latitude": 37.54787064,
      "longitude": 126.92353058
    },
    {
      "id": "113",
      "name": "113. 홍대입구역 2번출구 앞",
      "address": "서울특별시 마포구 양화로 165",
      "latitude": 37.5574379,
      "longitude": 126.9238205
    },
    {
      "id": "114",
      "name": "114. 홍대입구역 8번출구 앞",
      "address": "서울특별시 마포구 양화로18길 3",
      "latitude": 37.55706024,
      "longitude": 126.92442322
    },
    {
      "id": "115",
      "name": "115. 마스타 빌딩 앞",
      "address": "서울특별시 서대문구 연희로 7",
      "latitude": 37.55893326,
      "longitude": 126.92711639
    },
    {
      "id": "117",
      "name": "117. 홍은사거리",
      "address": "마포구 서강로1길 30",
      "latitude": 37.59115982,
      "longitude": 126.94132996
    },
    {
      "id": "118",
      "name": "118. 광흥창역 2번출구 앞",
      "address": "서울특별시 마포구 독막로 지하165",
      "latitude": 37.54773331,
      "longitude": 126.9317627
    },
    {
      "id": "119",
      "name": "119. 서강나루 공원",
      "address": "서울특별시 마포구 창전로 30",
      "latitude": 37.54520798,
      "longitude": 126.93146515
    },
    {
      "id": "120",
      "name": "120. 신수동 사거리",
      "address": "서울특별시 마포구 토정로 211",
      "latitude": 37.54524231,
      "longitude": 126.93411255
    },
    {
      "id": "121",
      "name": "121. 마포소방서 앞",
      "address": "서울특별시 마포구 창전로 76",
      "latitude": 37.54976654,
      "longitude": 126.93317413
    },
    {
      "id": "122",
      "name": "122. 신성기사식당 앞",
      "address": "서울특별시 마포구 독막로 223-1",
      "latitude": 37.54745865,
      "longitude": 126.93837738
    },
    {
      "id": "123",
      "name": "123. 문화촌 공원",
      "address": "서울특별시 서대문구 홍제동 277-23",
      "latitude": 37.59432983,
      "longitude": 126.9473877
    },
    {
      "id": "124",
      "name": "124. 서강대 정문 건너편",
      "address": "서울특별시 마포구 서강로16길 72",
      "latitude": 37.55113983,
      "longitude": 126.93698883
    },
    {
      "id": "126",
      "name": "126. 서강대 후문 옆",
      "address": "서울특별시 마포구 대흥로 122",
      "latitude": 37.55041122,
      "longitude": 126.94384766
    },
    {
      "id": "128",
      "name": "128. 신촌역(2호선) 1번출구 옆",
      "address": "서울특별시 서대문구 연세로 3-5",
      "latitude": 37.55549622,
      "longitude": 126.93634033
    },
    {
      "id": "129",
      "name": "129. 신촌역(2호선) 6번출구 옆",
      "address": "서울특별시 마포구 신촌로 106",
      "latitude": 37.55505371,
      "longitude": 126.93756866
    },
    {
      "id": "130",
      "name": "130. 신촌역(2호선) 7번출구 앞",
      "address": "서울특별시 마포구 신촌로 94",
      "latitude": 37.5550499,
      "longitude": 126.93626404
    },
    {
      "id": "131",
      "name": "131. 증산2교",
      "address": "서울특별시 서대문구 증가로 264",
      "latitude": 37.5841713,
      "longitude": 126.91110229
    },
    {
      "id": "133",
      "name": "133. 해담는다리",
      "address": "서울특별시 서대문구 불광천길 150",
      "latitude": 37.58203125,
      "longitude": 126.90899658
    },
    {
      "id": "134",
      "name": "134. 연세로 명물길",
      "address": "서울특별시 서대문구 명물길 33",
      "latitude": 37.55789185,
      "longitude": 126.93807983
    },
    {
      "id": "135",
      "name": "135. 명물길 원형무대 앞",
      "address": "서대문구 창천동 31-69",
      "latitude": 37.55922699,
      "longitude": 126.93984222
    },
    {
      "id": "137",
      "name": "137. 신촌기차역입구 교차로",
      "address": "서울특별시 서대문구 연세로2다길 58",
      "latitude": 37.55681229,
      "longitude": 126.9431839
    },
    {
      "id": "138",
      "name": "138. 신촌동 제1공영주차장 앞",
      "address": "서울특별시 서대문구 증가로 264",
      "latitude": 37.5591774,
      "longitude": 126.93452454
    },
    {
      "id": "139",
      "name": "139. 연세대 정문 건너편",
      "address": "서울특별시 서대문구 연세로 42",
      "latitude": 37.55986404,
      "longitude": 126.93441772
    },
    {
      "id": "140",
      "name": "140. 이화여대 후문",
      "address": "서울특별시 서대문구 연세로 50-1",
      "latitude": 37.560009,
      "longitude": 126.94073486
    },
    {
      "id": "141",
      "name": "141. 연대 대운동장 옆",
      "address": "서울특별시 서대문구 연세로 50",
      "latitude": 37.56238174,
      "longitude": 126.93264771
    },
    {
      "id": "142",
      "name": "142. 아현역 4번출구 앞",
      "address": "서울특별시 마포구 아현동 329-15",
      "latitude": 37.55720139,
      "longitude": 126.95566559
    },
    {
      "id": "143",
      "name": "143. 공덕역 2번출구",
      "address": "서울특별시 마포구 공덕동 257-88",
      "latitude": 37.54464722,
      "longitude": 126.9500885
    },
    {
      "id": "145",
      "name": "145. 공덕역 5번출구",
      "address": "서울특별시 마포구 공덕동 237-9",
      "latitude": 37.54425049,
      "longitude": 126.95163727
    },
    {
      "id": "146",
      "name": "146. 마포역 2번출구 뒤",
      "address": "서울특별시 마포구 도화동 555-2",
      "latitude": 37.53993607,
      "longitude": 126.94582367
    },
    {
      "id": "147",
      "name": "147. 마포역 4번출구 뒤",
      "address": "서울특별시 마포구 도화동 292-29",
      "latitude": 37.53927231,
      "longitude": 126.94591522
    },
    {
      "id": "148",
      "name": "148. 용강동 주민센터 앞",
      "address": "서울특별시 마포구 용강동 234-1",
      "latitude": 37.54234695,
      "longitude": 126.94302368
    },
    {
      "id": "150",
      "name": "150. 서강대역 2번출구 앞",
      "address": "서울특별시 마포구 노고산동 112-13",
      "latitude": 37.55295563,
      "longitude": 126.93434143
    },
    {
      "id": "153",
      "name": "153. 성산2교 사거리",
      "address": "서울특별시 마포구 성산동 54-17",
      "latitude": 37.56469727,
      "longitude": 126.91261292
    },
    {
      "id": "154",
      "name": "154. 마포구청역",
      "address": "서울특별시 마포구 망원동 477-23",
      "latitude": 37.56090927,
      "longitude": 126.90549469
    },
    {
      "id": "155",
      "name": "155. 가좌역1 번출구 앞",
      "address": "서울특별시 마포구 성산동123-29",
      "latitude": 37.56829453,
      "longitude": 126.91504669
    },
    {
      "id": "157",
      "name": "157. 애오개역 4번출구 앞",
      "address": "서울특별시 마포구 아현동 607-1",
      "latitude": 37.5530014,
      "longitude": 126.95668793
    },
    {
      "id": "159",
      "name": "159. 이대역 4번 출구",
      "address": "서울특별시 서대문구 대현동 60-11",
      "latitude": 37.55695343,
      "longitude": 126.94634247
    },
    {
      "id": "160",
      "name": "160. 북아현동 가구거리",
      "address": "서울특별시 서대문구 북아현동 251-78",
      "latitude": 37.55754852,
      "longitude": 126.9593811
    },
    {
      "id": "161",
      "name": "161. 무악재역1번 출구",
      "address": "서울특별시 서대문구 통일로 380-4",
      "latitude": 37.58224487,
      "longitude": 126.95064545
    },
    {
      "id": "162",
      "name": "162. 봉원고가차도 밑",
      "address": "서울특별시 서대문구 대신동 143-1",
      "latitude": 37.56626129,
      "longitude": 126.94667053
    },
    {
      "id": "163",
      "name": "163. 명지전문대학교 정문 앞",
      "address": "서울특별시 서대문구 홍은동 산25-3",
      "latitude": 37.58369827,
      "longitude": 126.9249649
    },
    {
      "id": "164",
      "name": "164. 북가좌1동 주민센터",
      "address": "서울특별시 서대문구 북가좌동 477-1",
      "latitude": 37.57447815,
      "longitude": 126.91004944
    },
    {
      "id": "165",
      "name": "165. 중앙근린공원",
      "address": "서울특별시 서대문구 북가좌동 470-1",
      "latitude": 37.57513809,
      "longitude": 126.91394043
    },
    {
      "id": "166",
      "name": "166. 가재울 초등학교",
      "address": "서울특별시 서대문구 연희동 530",
      "latitude": 37.57381821,
      "longitude": 126.91923523
    },
    {
      "id": "167",
      "name": "167. 연가초등학교 옆",
      "address": "서울특별시 서대문구 북가좌동 70-119",
      "latitude": 37.57946014,
      "longitude": 126.91712952
    },
    {
      "id": "169",
      "name": "169. 북가좌 삼거리",
      "address": "서울특별시 서대문구 북가좌동 400",
      "latitude": 37.57300186,
      "longitude": 126.90779877
    },
    {
      "id": "170",
      "name": "170. DMC파크뷰자이아파트 302동 앞",
      "address": "서울특별시 서대문구 남가좌동 124",
      "latitude": 37.57311249,
      "longitude": 126.9224472
    },
    {
      "id": "171",
      "name": "171. 임광빌딩 앞",
      "address": "미근동 317-1",
      "latitude": 37.56472397,
      "longitude": 126.96727753
    },
    {
      "id": "173",
      "name": "173. 서대문역 8번출구 앞",
      "address": "서울특별시 서대문구 충정로2가 138",
      "latitude": 37.56477737,
      "longitude": 126.96614838
    },
    {
      "id": "175",
      "name": "175. 홍연2교옆",
      "address": "서울특별시 서대문구 홍은동 387-16",
      "latitude": 37.57806778,
      "longitude": 126.93088531
    },
    {
      "id": "176",
      "name": "176. 명지대학교 도서관",
      "address": "서울특별시 서대문구 거북골로 34",
      "latitude": 37.58109665,
      "longitude": 126.92402649
    },
    {
      "id": "177",
      "name": "177. 북가좌 초등학교",
      "address": "서울특별시 서대문구 거북골로19길 20",
      "latitude": 37.57763672,
      "longitude": 126.90965271
    },
    {
      "id": "178",
      "name": "178. 증산3교 앞",
      "address": "서울특별시 서대문구 북가좌동 352-9",
      "latitude": 37.57987595,
      "longitude": 126.90634918
    },
    {
      "id": "179",
      "name": "179. 가좌역 4번출구 앞",
      "address": "서울특별시 서대문구 남가좌동 293-3",
      "latitude": 37.56877518,
      "longitude": 126.91529846
    },
    {
      "id": "180",
      "name": "180. 충정로역 7번출구 아래",
      "address": "서울특별시 서대문구 충정로3가 56-1",
      "latitude": 37.55996704,
      "longitude": 126.96246338
    },
    {
      "id": "181",
      "name": "181. 망원초록길 입구",
      "address": "서울특별시 마포구 마포나루길 467",
      "latitude": 37.55134201,
      "longitude": 126.90267181
    },
    {
      "id": "182",
      "name": "182. 망원2빗물펌프장 앞",
      "address": "서울특별시?마포구?동교로?8",
      "latitude": 37.5513649,
      "longitude": 126.90306091
    },
    {
      "id": "183",
      "name": "183. 하늘채코오롱아파트 건너편",
      "address": "서울특별시 마포구 연남로 30",
      "latitude": 37.56538773,
      "longitude": 126.91932678
    },
    {
      "id": "184",
      "name": "184. 망원우체국사거리 인근",
      "address": "서울특별시 마포구 월드컵로 119",
      "latitude": 37.55894852,
      "longitude": 126.90775299
    },
    {
      "id": "185",
      "name": "185. 마포 신수공원 앞",
      "address": "서울특별시 마포구 현석동 106-32",
      "latitude": 37.54254532,
      "longitude": 126.93429565
    },
    {
      "id": "186",
      "name": "186. 월드컵공원",
      "address": "서울특별시 마포구 하늘공원로 108-1",
      "latitude": 37.56396484,
      "longitude": 126.89820862
    },
    {
      "id": "188",
      "name": "188. 홍은동 정원여중 입구",
      "address": "서울특별시 서대문구 연희로37안길 51",
      "latitude": 37.58638763,
      "longitude": 126.93512726
    },
    {
      "id": "191",
      "name": "191. 서우빌딩",
      "address": "서울특별시 서대문구 응암로 66",
      "latitude": 37.57889175,
      "longitude": 126.91073608
    },
    {
      "id": "192",
      "name": "192. 연서어린이공원",
      "address": "서울특별시 서대문구 연희동 519-7",
      "latitude": 37.57222748,
      "longitude": 126.92306519
    },
    {
      "id": "194",
      "name": "194. 증산교 앞",
      "address": "서울특별시 서대문구 불광천길 36",
      "latitude": 37.57731628,
      "longitude": 126.90296936
    },
    {
      "id": "195",
      "name": "195. 모래내고가차도",
      "address": "서울특별시 서대문구 연희동 446-76",
      "latitude": 37.56765747,
      "longitude": 126.91780853
    },
    {
      "id": "196",
      "name": "196. 연희교차로 인근",
      "address": "서울특별시 서대문구 홍제천로 48",
      "latitude": 37.56612015,
      "longitude": 126.92589569
    },
    {
      "id": "198",
      "name": "198. 충정2교",
      "address": "서울특별시 서대문구 충정로3가 155-4",
      "latitude": 37.56390762,
      "longitude": 126.96497345
    },
    {
      "id": "199",
      "name": "199. 서울 월드컵 경기장",
      "address": "서울특별시 마포구 성산동 515",
      "latitude": 37.56684494,
      "longitude": 126.89644623
    },
    {
      "id": "200",
      "name": "200. 국회의원회관",
      "address": "서울특별시 영등포구 의사당대로 1",
      "latitude": 37.52841568,
      "longitude": 126.91391754
    },
    {
      "id": "201",
      "name": "201. 진미파라곤 앞",
      "address": "서울특별시 영등포구 국회대로76길 10",
      "latitude": 37.53123856,
      "longitude": 126.92133331
    },
    {
      "id": "202",
      "name": "202. 국민일보 앞",
      "address": "서울특별시 영등포구 여의공원로 101",
      "latitude": 37.52881622,
      "longitude": 126.92453003
    },
    {
      "id": "203",
      "name": "203. 국회의사당역 3번출구 옆",
      "address": "서울특별시 영등포구 국회대로 지하758",
      "latitude": 37.5280571,
      "longitude": 126.91870117
    },
    {
      "id": "204",
      "name": "204. 국회의사당역 5번출구 옆",
      "address": "서울특별시 영등포구 의사당대로 8",
      "latitude": 37.52816391,
      "longitude": 126.91702271
    },
    {
      "id": "205",
      "name": "205. 산업은행 앞",
      "address": "서울특별시 영등포구 의사당대로 97",
      "latitude": 37.52626419,
      "longitude": 126.92050934
    },
    {
      "id": "206",
      "name": "206. KBS 앞",
      "address": "서울특별시 영등포구 여의공원로 13",
      "latitude": 37.52466583,
      "longitude": 126.91802216
    },
    {
      "id": "207",
      "name": "207. 여의나루역 1번출구 앞",
      "address": "서울특별시 영등포구 여의동로 지하343",
      "latitude": 37.52715683,
      "longitude": 126.93190002
    },
    {
      "id": "209",
      "name": "209. 유진투자증권빌딩 앞",
      "address": "서울특별시 영등포구 국제금융로 24",
      "latitude": 37.52461243,
      "longitude": 126.92783356
    },
    {
      "id": "213",
      "name": "213. KT앞",
      "address": "서울특별시 영등포구 여의대로 38",
      "latitude": 37.52190781,
      "longitude": 126.91895294
    },
    {
      "id": "214",
      "name": "214. 금융감독원 앞",
      "address": "서울특별시 영등포구 여의대로 38",
      "latitude": 37.5230217,
      "longitude": 126.9208374
    },
    {
      "id": "215",
      "name": "215. 여의도고교 앞",
      "address": "서울특별시 영등포구 국제금융로7길 37",
      "latitude": 37.52483749,
      "longitude": 126.93490601
    },
    {
      "id": "217",
      "name": "217. NH농협은행 앞",
      "address": "서울특별시 영등포구 국제금융로8길 2",
      "latitude": 37.52207947,
      "longitude": 126.93036652
    },
    {
      "id": "219",
      "name": "219. 롯데캐슬엠파이어 옆",
      "address": "서울특별시 영등포구 의사당대로 127",
      "latitude": 37.52069473,
      "longitude": 126.92583466
    },
    {
      "id": "220",
      "name": "220. 미성아파트 A동 앞",
      "address": "서울특별시 영등포구 의사당대로 110",
      "latitude": 37.5193634,
      "longitude": 126.92604828
    },
    {
      "id": "221",
      "name": "221. 여의도초교 앞",
      "address": "서울특별시 영등포구 여의대방로 439",
      "latitude": 37.52267456,
      "longitude": 126.93778992
    },
    {
      "id": "222",
      "name": "222. 시범아파트버스정류장 옆",
      "address": "서울특별시 영등포구 63로 45",
      "latitude": 37.51902008,
      "longitude": 126.93688965
    },
    {
      "id": "223",
      "name": "223. 진주아파트상가 앞",
      "address": "서울특별시 영등포구 국제금융로 108-6",
      "latitude": 37.51913071,
      "longitude": 126.9333725
    },
    {
      "id": "224",
      "name": "224. 롯데캐슬 앞",
      "address": "서울특별시 영등포구 국제금융로 86",
      "latitude": 37.5200882,
      "longitude": 126.93236542
    },
    {
      "id": "225",
      "name": "225. 앙카라공원 앞",
      "address": "서울특별시 영등포구 의사당대로 지하166",
      "latitude": 37.51758575,
      "longitude": 126.92961884
    },
    {
      "id": "226",
      "name": "226. 샛강역 1번출구 앞",
      "address": "서울특별시 영등포구 의사당대로 지하166",
      "latitude": 37.51776505,
      "longitude": 126.92841339
    },
    {
      "id": "227",
      "name": "227. 양평1나들목 보행통로 입구",
      "address": "서울특별시 영등포구 양화동 17-4",
      "latitude": 37.54466629,
      "longitude": 126.88835907
    },
    {
      "id": "228",
      "name": "228. 선유도역 3번출구 앞",
      "address": "서울특별시 영등포구 양평동4가 202-1",
      "latitude": 37.53845978,
      "longitude": 126.89450836
    },
    {
      "id": "229",
      "name": "229. 양평1 보행육교 앞",
      "address": "서울특별시 영등포구 양평동4가 20-4",
      "latitude": 37.53587341,
      "longitude": 126.8921814
    },
    {
      "id": "230",
      "name": "230. 영등포구청역 7번출구",
      "address": "서울특별시 영등포구 당산로 111-2",
      "latitude": 37.52435684,
      "longitude": 126.89600372
    },
    {
      "id": "231",
      "name": "231. 남부고용노동지청 남측",
      "address": "서울특별시 영등포구 양평동1가 115-2",
      "latitude": 37.52450562,
      "longitude": 126.89182281
    },
    {
      "id": "232",
      "name": "232. 양평우림 이비즈센타 앞",
      "address": "서울특별시 영등포구 양평동3가 14-1",
      "latitude": 37.52565002,
      "longitude": 126.88781738
    },
    {
      "id": "233",
      "name": "233. 양평1동 YP센터 앞",
      "address": "서울특별시 영등포구 양평동3가 60-1",
      "latitude": 37.52848816,
      "longitude": 126.89164734
    },
    {
      "id": "236",
      "name": "236. 문래동자이아파트 앞",
      "address": "서울특별시 영등포구 문래동3가 68-1",
      "latitude": 37.51615524,
      "longitude": 126.89461517
    },
    {
      "id": "237",
      "name": "237. 보라매 두산위브 건너편",
      "address": "동작구 여의대방로 74",
      "latitude": 37.496521,
      "longitude": 126.91492462
    },
    {
      "id": "238",
      "name": "238. 제2구민체육센타 앞",
      "address": "서울특별시 영등포구 당산동4가 96-2",
      "latitude": 37.52638626,
      "longitude": 126.90275574
    },
    {
      "id": "239",
      "name": "239. 유스호스텔 앞",
      "address": "서울특별시 영등포구 영등포동7가 58-2",
      "latitude": 37.5258522,
      "longitude": 126.90328217
    },
    {
      "id": "240",
      "name": "240. 문래역 4번출구 앞",
      "address": "서울특별시 영등포구 문래동3가 55-12",
      "latitude": 37.51873779,
      "longitude": 126.89557648
    },
    {
      "id": "241",
      "name": "241. 신길우성1차아파트 앞 공원",
      "address": "서울특별시 영등포구 도림동 255-2",
      "latitude": 37.50501633,
      "longitude": 126.89853668
    },
    {
      "id": "242",
      "name": "242. 신길선원가와인아파트 앞",
      "address": "서울특별시 영등포구 신길동 215-28",
      "latitude": 37.51093292,
      "longitude": 126.91022491
    },
    {
      "id": "243",
      "name": "243. 이앤씨드림타워 앞",
      "address": "서울특별시 영등포구 양평동3가 48-1",
      "latitude": 37.52708435,
      "longitude": 126.89138031
    },
    {
      "id": "244",
      "name": "244. 영등포삼환아파트 앞",
      "address": "서울특별시 영등포구 영등포동8가 82-4",
      "latitude": 37.53007889,
      "longitude": 126.90570831
    },
    {
      "id": "245",
      "name": "245. 삼성생명 당산사옥 앞",
      "address": "서울특별시 영등포구 당산동4가 35-24",
      "latitude": 37.52826309,
      "longitude": 126.89662933
    },
    {
      "id": "247",
      "name": "247. 당산역 10번출구 앞",
      "address": "서울특별시 영등포구 당산동5가 14-4",
      "latitude": 37.53342056,
      "longitude": 126.90223694
    },
    {
      "id": "248",
      "name": "248. 초원아파트 앞",
      "address": "서울특별시 영등포구 여의도동8-13",
      "latitude": 37.53105545,
      "longitude": 126.92420959
    },
    {
      "id": "249",
      "name": "249. 여의도중학교 옆",
      "address": "서울특별시 영등포구 여의도동 8",
      "latitude": 37.52457809,
      "longitude": 126.93580627
    },
    {
      "id": "250",
      "name": "250. 대림아파트 사거리",
      "address": "서울특별시 영등포구 신길동 249",
      "latitude": 37.50764084,
      "longitude": 126.92308044
    },
    {
      "id": "251",
      "name": "251. 서울지방병무청 버스정류장",
      "address": "서울특별시 영등포구 신길동853",
      "latitude": 37.50449371,
      "longitude": 126.92195129
    },
    {
      "id": "252",
      "name": "252. 보라매역4번출구",
      "address": "서울특별시 영등포구 신길동4884",
      "latitude": 37.49982834,
      "longitude": 126.91994476
    },
    {
      "id": "254",
      "name": "254. 도림신협 앞",
      "address": "서울특별시 영등포구 신길동263-76",
      "latitude": 37.50380325,
      "longitude": 126.90341949
    },
    {
      "id": "255",
      "name": "255. 도림사거리",
      "address": "서울특별시 영등포구 신길동373-1",
      "latitude": 37.50657272,
      "longitude": 126.90113068
    },
    {
      "id": "256",
      "name": "256. 동아에코빌입구",
      "address": "서울특별시 영등포구 도림동 159-70",
      "latitude": 37.50947571,
      "longitude": 126.89929962
    },
    {
      "id": "258",
      "name": "258. 신길역3번출구",
      "address": "서울특별시 영등포구 영등포동1가35",
      "latitude": 37.51769257,
      "longitude": 126.91429901
    },
    {
      "id": "259",
      "name": "259. 대방역6번출구",
      "address": "서울특별시 영등포구 신길동1368",
      "latitude": 37.51359177,
      "longitude": 126.92593384
    },
    {
      "id": "260",
      "name": "260. 여의도 마리나선착장 앞",
      "address": "서울특별시 영등포구 여의서로 160",
      "latitude": 37.53365707,
      "longitude": 126.91216278
    },
    {
      "id": "263",
      "name": "263. 근로자회관 사거리",
      "address": "서울특별시 영등포구 선유로 34",
      "latitude": 37.51715088,
      "longitude": 126.8886261
    },
    {
      "id": "264",
      "name": "264. 교보생명보험 앞",
      "address": "서울특별시 영등포구 영등포로 96",
      "latitude": 37.52193069,
      "longitude": 126.89161682
    },
    {
      "id": "265",
      "name": "265. 영등포유통상가 사거리",
      "address": "서울특별시 영등포구 영등포로 124",
      "latitude": 37.52113342,
      "longitude": 126.89653778
    },
    {
      "id": "266",
      "name": "266. 영등포청과시장 사거리",
      "address": "서울특별시 영등포구 영등포로 177",
      "latitude": 37.52029419,
      "longitude": 126.90119171
    },
    {
      "id": "267",
      "name": "267. 삼성화재 사옥 옆",
      "address": "서울특별시 영등포구 양평로 76",
      "latitude": 37.53596115,
      "longitude": 126.89830017
    },
    {
      "id": "268",
      "name": "268. 그랜드컨벤션센터 앞",
      "address": "서울특별시 영등포구 양평로 58",
      "latitude": 37.53471756,
      "longitude": 126.90000153
    },
    {
      "id": "270",
      "name": "270. 증권거래소후문교차로",
      "address": "서울특별시 영등포구 여의나루로 76",
      "latitude": 37.52234268,
      "longitude": 126.92710114
    },
    {
      "id": "271",
      "name": "271. 샛강생태공원방문자센터 앞",
      "address": "서울특별시 영등포구 여의동로 48",
      "latitude": 37.51896286,
      "longitude": 126.9216156
    },
    {
      "id": "272",
      "name": "272. 당산육갑문",
      "address": "서울특별시 영등포구 당산로52길 3",
      "latitude": 37.53533936,
      "longitude": 126.90367889
    },
    {
      "id": "275",
      "name": "275. 신동아아파트",
      "address": "서울특별시 영등포구 선유서로 76",
      "latitude": 37.52269745,
      "longitude": 126.88568115
    },
    {
      "id": "276",
      "name": "276. 영등포로터리2",
      "address": "서울특별시 영등포구 경인로112길 1",
      "latitude": 37.51828384,
      "longitude": 126.9126358
    },
    {
      "id": "278",
      "name": "278. 쌍용플레티넘오피스텔",
      "address": "서울특별시 영등포구 도영로 18",
      "latitude": 37.50793076,
      "longitude": 126.89523315
    },
    {
      "id": "279",
      "name": "279. 영등포 푸르지오 아파트 B",
      "address": "서울특별시 영등포구 도신로29길 28",
      "latitude": 37.51322937,
      "longitude": 126.90446472
    },
    {
      "id": "280",
      "name": "280. 양평동6차현대아파트 앞",
      "address": "양평동 3가 80-9",
      "latitude": 37.53210068,
      "longitude": 126.8944397
    },
    {
      "id": "281",
      "name": "281. 대림신동아아파트 앞",
      "address": "가마산로 311 앞 복개천 보도",
      "latitude": 37.49824142,
      "longitude": 126.89398193
    },
    {
      "id": "282",
      "name": "282. 신한은행 대림동지점",
      "address": "시흥대로 617",
      "latitude": 37.48752975,
      "longitude": 126.90487671
    },
    {
      "id": "283",
      "name": "283. 아크로타워 스퀘어(영등포시장)",
      "address": "영등포구 영등포동7가 3-2",
      "latitude": 37.52251816,
      "longitude": 126.90721893
    },
    {
      "id": "284",
      "name": "284. 센트럴 푸르지오 시티 앞",
      "address": "문래로 180",
      "latitude": 37.51821136,
      "longitude": 126.90222931
    },
    {
      "id": "285",
      "name": "285. 콤텍시스템 앞",
      "address": "가마산로 343",
      "latitude": 37.49985886,
      "longitude": 126.89723969
    },
    {
      "id": "286",
      "name": "286. 우성아파트 교차로",
      "address": "대림로 153",
      "latitude": 37.49457169,
      "longitude": 126.89974976
    },
    {
      "id": "287",
      "name": "287. 영등포전화국사거리 (서강어린이공원)",
      "address": "영등포동8가 29-1",
      "latitude": 37.52576828,
      "longitude": 126.90573883
    },
    {
      "id": "288",
      "name": "288. 쌍용예가(구청별관)",
      "address": "당산로31길 32 서측(구청별관 주변)",
      "latitude": 37.52809906,
      "longitude": 126.89338684
    },
    {
      "id": "289",
      "name": "289. 대림3동사거리",
      "address": "가마산로 352 커피베이 앞",
      "latitude": 37.49980927,
      "longitude": 126.89800262
    },
    {
      "id": "290",
      "name": "290. 새말소공원",
      "address": "영등포구 당산동4가 89-1",
      "latitude": 37.5315094,
      "longitude": 126.89782715
    },
    {
      "id": "291",
      "name": "291. 문래동 하이테크 시티",
      "address": "영등포구 문래동3가 55-21",
      "latitude": 37.51412964,
      "longitude": 126.89939117
    },
    {
      "id": "292",
      "name": "292. 영일 어린이공원",
      "address": "영등포구 영등포동 647-3",
      "latitude": 37.51012039,
      "longitude": 126.90406799
    },
    {
      "id": "293",
      "name": "293. 충북 미래관",
      "address": "영등포구 당산동 121-258",
      "latitude": 37.52917099,
      "longitude": 126.90757751
    },
    {
      "id": "295",
      "name": "295. 영등포공원 분수대 앞",
      "address": "영등포구 신길로 275",
      "latitude": 37.51481247,
      "longitude": 126.91170502
    },
    {
      "id": "296",
      "name": "296. KT플라자 영등포점",
      "address": "영등포구 영중로 119",
      "latitude": 37.52630234,
      "longitude": 126.90538025
    },
    {
      "id": "297",
      "name": "297. 국회3문",
      "address": "영등포구 여의동로 330",
      "latitude": 37.52863693,
      "longitude": 126.91267395
    },
    {
      "id": "298",
      "name": "298. KBS 연구동 건너편",
      "address": "영등포구 여의도동 1-877",
      "latitude": 37.52724838,
      "longitude": 126.91374207
    },
    {
      "id": "299",
      "name": "299. 여의도 순복음교회",
      "address": "영등포구 여의도동 8",
      "latitude": 37.53179169,
      "longitude": 126.92245483
    },
    {
      "id": "300",
      "name": "300. 정동사거리",
      "address": "서울특별시 중구 정동길 2-1 정동사거리",
      "latitude": 37.56805038,
      "longitude": 126.96923065
    },
    {
      "id": "301",
      "name": "301. 경복궁역 7번출구 앞",
      "address": "서울특별시 종로구 사직로 지하130 경복궁역 7번출구 앞",
      "latitude": 37.57579422,
      "longitude": 126.97145081
    },
    {
      "id": "302",
      "name": "302. 경복궁역 6번출구 뒤",
      "address": "서울특별시 종로구 사직로 지하130 경복궁역 4번출구 뒤",
      "latitude": 37.57561493,
      "longitude": 126.97289276
    },
    {
      "id": "303",
      "name": "303. 광화문역 1번출구 앞",
      "address": "서울특별시 종로구 세종대로 지하189 세종로공원",
      "latitude": 37.57176971,
      "longitude": 126.97466278
    },
    {
      "id": "305",
      "name": "305. 종로구청 옆",
      "address": "서울특별시 종로구 세종로 84-1",
      "latitude": 37.57255936,
      "longitude": 126.97833252
    },
    {
      "id": "307",
      "name": "307. 서울역사박물관 앞",
      "address": "서울특별시 종로구 새문안로 55 서울역사박물관 앞",
      "latitude": 37.56999969,
      "longitude": 126.97109985
    },
    {
      "id": "308",
      "name": "308. 광화문 S타워 앞",
      "address": "서울특별시 종로구 새문안로 82 광화문S타워 앞",
      "latitude": 37.56996918,
      "longitude": 126.97393799
    },
    {
      "id": "309",
      "name": "309. 광화문역 6번출구 옆 B",
      "address": "서울특별시 종로구 새문안로 102-2 가로판매대",
      "latitude": 37.56996155,
      "longitude": 126.97615814
    },
    {
      "id": "310",
      "name": "310. 청계광장 옆",
      "address": "서울특별시 중구 세종대로 136 청계광장 옆",
      "latitude": 37.56887817,
      "longitude": 126.9774704
    },
    {
      "id": "314",
      "name": "314. 국립현대미술관",
      "address": "서울특별시 종로구 삼청로 30 국립현대미술관 서울관",
      "latitude": 37.5797081,
      "longitude": 126.98085785
    },
    {
      "id": "316",
      "name": "316. 종각역 1번출구 앞",
      "address": "서울특별시 종로구 종로 47 종각역 1번출구 앞",
      "latitude": 37.57039642,
      "longitude": 126.98178864
    },
    {
      "id": "318",
      "name": "318. 광교사거리 남측",
      "address": "서울특별시 중구 남대문로 125 DGB금융센터",
      "latitude": 37.56863403,
      "longitude": 126.98231506
    },
    {
      "id": "320",
      "name": "320. 을지로입구역 4번출구 앞",
      "address": "서울특별시 중구 을지로 55 명동금융센터 앞",
      "latitude": 37.56622314,
      "longitude": 126.98358917
    },
    {
      "id": "321",
      "name": "321. KEB 하나금융그룹 명동사옥 옆",
      "address": "서울특별시 중구 을지로 66 한국외환은행 본점 앞",
      "latitude": 37.56546402,
      "longitude": 126.98413849
    },
    {
      "id": "322",
      "name": "322. 명동성당 앞",
      "address": "서울특별시 중구 명동길 74 명동성당 앞",
      "latitude": 37.56447601,
      "longitude": 126.98696899
    },
    {
      "id": "324",
      "name": "324. 신세계백화점 본점 앞",
      "address": "서울특별시 중구 충무로1가 53-6",
      "latitude": 37.56134415,
      "longitude": 126.9805069
    },
    {
      "id": "326",
      "name": "326. 안국역 5번출구 앞",
      "address": "서울특별시 종로구 율곡로 지하62 안국역 5번출구 앞",
      "latitude": 37.57624054,
      "longitude": 126.98616028
    },
    {
      "id": "327",
      "name": "327. 낙원상가 옆",
      "address": "서울특별시 종로구 삼일대로 428 낙원상가 옆",
      "latitude": 37.57335663,
      "longitude": 126.9874649
    },
    {
      "id": "328",
      "name": "328. 탑골공원 앞",
      "address": "서울특별시 종로구 종로 99 탑골공원 앞",
      "latitude": 37.57039642,
      "longitude": 126.9881897
    },
    {
      "id": "329",
      "name": "329. 청계2가 사거리 옆",
      "address": "서울특별시 종로구 청계천로 93 파고다타워",
      "latitude": 37.56848526,
      "longitude": 126.98788452
    },
    {
      "id": "331",
      "name": "331. 을지로2가 사거리 북측",
      "address": "서울특별시 중구 을지로 79 을지로2가 사거리 북측",
      "latitude": 37.56638336,
      "longitude": 126.98720551
    },
    {
      "id": "332",
      "name": "332. 을지로2가 사거리 남측",
      "address": "서울특별시 중구 을지로 100 을지로2가 사거리 남측",
      "latitude": 37.56599045,
      "longitude": 126.98779297
    },
    {
      "id": "334",
      "name": "334. 종로3가역 2번출구 뒤",
      "address": "서울특별시 종로구 종로 지하129 종로3가역 2번출구 뒤",
      "latitude": 37.5705986,
      "longitude": 126.99179077
    },
    {
      "id": "335",
      "name": "335. 종로3가역 15번출구 뒤",
      "address": "서울특별시 종로구 종로 지하129 15번출구 앞",
      "latitude": 37.57019424,
      "longitude": 126.99165344
    },
    {
      "id": "336",
      "name": "336. 충무로역 6번출구 앞",
      "address": "서울특별시 중구 퇴계로 214 충무로역 3.4호선",
      "latitude": 37.56144714,
      "longitude": 126.99311066
    },
    {
      "id": "337",
      "name": "337. 창경궁 입구",
      "address": "서울특별시 종로구 창경궁로 185 창경궁 입구",
      "latitude": 37.57897949,
      "longitude": 126.99647522
    },
    {
      "id": "338",
      "name": "338. 세운스퀘어 앞",
      "address": "서울특별시 종로구 창경궁로 109 세운스퀘어 앞",
      "latitude": 37.57095718,
      "longitude": 126.99712372
    },
    {
      "id": "339",
      "name": "339. 종로4가 사거리",
      "address": "서울특별시 종로구 종로 185 종로4가 사거리",
      "latitude": 37.57106781,
      "longitude": 126.99819183
    },
    {
      "id": "340",
      "name": "340. 혜화동 로터리",
      "address": "서울특별시 종로구 창경궁로 271-1 혜화동 로터리",
      "latitude": 37.58562851,
      "longitude": 127.00067902
    },
    {
      "id": "341",
      "name": "341. 혜화역 3번출구 뒤",
      "address": "서울특별시 종로구 대학로 지하120 혜화역 3번출구 뒤",
      "latitude": 37.58156967,
      "longitude": 127.00178528
    },
    {
      "id": "342",
      "name": "342. 대학로 마로니에공원",
      "address": "서울특별시 종로구 대학로 104 대학로 마로니에공원",
      "latitude": 37.58044434,
      "longitude": 127.00234222
    },
    {
      "id": "343",
      "name": "343. 힐스테이트창경궁 아파트 앞",
      "address": "서울특별시 종로구 충신동 60",
      "latitude": 37.57561111,
      "longitude": 127.00469971
    },
    {
      "id": "344",
      "name": "344. 성균관대 E하우스 앞",
      "address": "서울특별시 종로구 율곡로 259 성균관대 E하우스 앞",
      "latitude": 37.57419968,
      "longitude": 127.0065918
    },
    {
      "id": "345",
      "name": "345. 서울보증보험본사 앞",
      "address": "서울특별시 종로구 김상옥로 29 서울보증보험본사 앞",
      "latitude": 37.57330704,
      "longitude": 127.00070953
    },
    {
      "id": "346",
      "name": "346. 맥스타일 앞",
      "address": "서울특별시 중구 마장로 3 맥스타일",
      "latitude": 37.5689621,
      "longitude": 127.01014709
    },
    {
      "id": "347",
      "name": "347. 동대문역사문화공원역 9번출구 앞",
      "address": "서울특별시 중구 장충단로 지하230 동대문역사문화공원역 9번출구 앞",
      "latitude": 37.56533051,
      "longitude": 127.00784302
    },
    {
      "id": "348",
      "name": "348. 독립문역 사거리",
      "address": "서울특별시 종로구 교북동 10-1 독립문역 사거리",
      "latitude": 37.57210541,
      "longitude": 126.96095276
    },
    {
      "id": "349",
      "name": "349. 어린이도서관",
      "address": "서울특별시 종로구 사직로9길 5 사직동주민센터",
      "latitude": 37.57633209,
      "longitude": 126.96858978
    },
    {
      "id": "351",
      "name": "351. 청운초교 앞 삼거리",
      "address": "서울특별시 종로구 청운동 108-22 청운초교 앞 삼거리",
      "latitude": 37.58496857,
      "longitude": 126.97041321
    },
    {
      "id": "352",
      "name": "352. 중앙고입구 삼거리",
      "address": "서울특별시 종로구 창덕궁길 191 중앙고입구 삼거리",
      "latitude": 37.58341599,
      "longitude": 126.98523712
    },
    {
      "id": "353",
      "name": "353. 재동초교 앞 삼거리",
      "address": "서울특별시 종로구 재동 19 재동초교 앞 삼거리",
      "latitude": 37.57938766,
      "longitude": 126.9849472
    },
    {
      "id": "354",
      "name": "354. 포르투갈 대사관 앞",
      "address": "서울특별시 종로구 창덕궁1길 3 포르투갈 대사관 앞",
      "latitude": 37.57915497,
      "longitude": 126.98896027
    },
    {
      "id": "355",
      "name": "355. 서울사대부설초등학교 앞",
      "address": "서울특별시 종로구 연건동 178-3 서울사대부속초교 앞",
      "latitude": 37.57650757,
      "longitude": 127.00245667
    },
    {
      "id": "356",
      "name": "356. KT혜화지사 앞",
      "address": "서울특별시 종로구 대학로 65 KT혜화지사 앞",
      "latitude": 37.57714462,
      "longitude": 127.00205994
    },
    {
      "id": "358",
      "name": "358. 성균관대입구 사거리 A",
      "address": "서울특별시 종로구 창경궁로 234 성대입구 사거리",
      "latitude": 37.58250046,
      "longitude": 126.99853516
    },
    {
      "id": "359",
      "name": "359. 원남동사거리",
      "address": "서울특별시 종로구 율곡로 169 원남동사거리",
      "latitude": 37.57606125,
      "longitude": 126.99768066
    },
    {
      "id": "361",
      "name": "361. 동묘앞역 1번출구 뒤",
      "address": "서울특별시 종로구 숭인동 81-39 동묘앞역 1번출구 뒤",
      "latitude": 37.57324219,
      "longitude": 127.01590729
    },
    {
      "id": "362",
      "name": "362. 청계8가사거리 A",
      "address": "서울특별시 종로구 청계천로 407 청계8가 사거리",
      "latitude": 37.57223511,
      "longitude": 127.0231781
    },
    {
      "id": "363",
      "name": "363. 신설동역 11번출구 뒤",
      "address": "서울특별시 종로구 종로 411-3 가로판매",
      "latitude": 37.57559204,
      "longitude": 127.02285004
    },
    {
      "id": "364",
      "name": "364. 창신역 1번출구 앞",
      "address": "서울특별시 종로구 지봉로 87 창신역 1번출구 앞",
      "latitude": 37.57933426,
      "longitude": 127.01508331
    },
    {
      "id": "367",
      "name": "367. 독립문역 3-1번출구",
      "address": "서울특별시 종로구 무악동 41-7 독립문역 3번출구 뒤",
      "latitude": 37.57415771,
      "longitude": 126.95851898
    },
    {
      "id": "368",
      "name": "368. SK 서린빌딩 앞",
      "address": "서울특별시 종로구 서린동 93-2 SK 서린빌딩 앞",
      "latitude": 37.5692482,
      "longitude": 126.98053741
    },
    {
      "id": "370",
      "name": "370. 시청역(2호선) 9번출구 뒤",
      "address": "서울특별시 중구 서소문로 지하127 시청역(2호선) 9번출구 뒤",
      "latitude": 37.56322861,
      "longitude": 126.97483826
    },
    {
      "id": "371",
      "name": "371. 동대입구역 6번출구 뒤",
      "address": "서울특별시 중구 동호로 지하256 동대입구역 6번출구 뒤",
      "latitude": 37.55887222,
      "longitude": 127.00553894
    },
    {
      "id": "372",
      "name": "372. 약수역 3번출구 뒤",
      "address": "서울특별시 중구 다산로 지하122 약수역 4번출구 뒤",
      "latitude": 37.55429459,
      "longitude": 127.01119995
    },
    {
      "id": "374",
      "name": "374. 신당동주민센터앞",
      "address": "서울특별시 중구 청구로 77 청구역 5.6호선",
      "latitude": 37.56209183,
      "longitude": 127.01467133
    },
    {
      "id": "379",
      "name": "379. 서울역9번출구",
      "address": "서울특별시 중구 세종대로 지하2 서울역9번출구",
      "latitude": 37.55580521,
      "longitude": 126.97330475
    },
    {
      "id": "380",
      "name": "380. CJ제일제당 앞",
      "address": "서울특별시 중구 동호로 330 CJ제일제당 앞",
      "latitude": 37.56386566,
      "longitude": 127.00274658
    },
    {
      "id": "381",
      "name": "381. 장충체육관",
      "address": "서울특별시 중구 장충동2가 200-99 장충체육관",
      "latitude": 37.55853271,
      "longitude": 127.00698853
    },
    {
      "id": "382",
      "name": "382. 약수역 10번출구 앞",
      "address": "서울특별시 중구 신당동 357-1 약수역 10번출구 앞",
      "latitude": 37.55519867,
      "longitude": 127.01004791
    },
    {
      "id": "383",
      "name": "383. 신당역 12번 출구 뒤",
      "address": "서울특별시 중구 신당동 99 신당역 5번 출구",
      "latitude": 37.56591797,
      "longitude": 127.01642609
    },
    {
      "id": "384",
      "name": "384. 중림동삼거리",
      "address": "서울특별시 중구 청파로 456 종로학원본원 앞",
      "latitude": 37.55978012,
      "longitude": 126.96850586
    },
    {
      "id": "385",
      "name": "385. 종각역 5번출구",
      "address": "서울특별시 종로구 서린동 26-1 종각역 5번출구",
      "latitude": 37.56983566,
      "longitude": 126.98265839
    },
    {
      "id": "387",
      "name": "387. 훈련원공원주차장 앞",
      "address": "서울특별시 중구 을지로 227 훈련원공원주차장 앞",
      "latitude": 37.56699371,
      "longitude": 127.00346375
    },
    {
      "id": "388",
      "name": "388. 동성중학교 앞",
      "address": "서울특별시 종로구 혜화동 56 동성중학교 앞",
      "latitude": 37.58573532,
      "longitude": 127.0016098
    },
    {
      "id": "389",
      "name": "389. 을지로4가역 1번출구",
      "address": "서울특별시 중구 을지로 지하 178 을지로4가역 1번출구",
      "latitude": 37.5667305,
      "longitude": 126.99660492
    },
    {
      "id": "390",
      "name": "390. 충무로역 1번출구",
      "address": "서울특별시 중구 퇴계로 212 충무로역 1번출구",
      "latitude": 37.56138992,
      "longitude": 126.9953537
    },
    {
      "id": "391",
      "name": "391. 시립미술관",
      "address": "서울특별시 중구 덕수궁길 61 서울시립미술관",
      "latitude": 37.56505203,
      "longitude": 126.97340393
    },
    {
      "id": "393",
      "name": "393. 동대문역 8번 출구",
      "address": "서울특별시 종로구 율곡로 지하 308 동대문역 8번출구",
      "latitude": 37.57014084,
      "longitude": 127.00937653
    },
    {
      "id": "394",
      "name": "394. 경희궁 자이 3단지",
      "address": "서울특별시 종로구 경교장길 35 경희궁자이 3단지",
      "latitude": 37.56748962,
      "longitude": 126.96591949
    },
    {
      "id": "397",
      "name": "397. 종묘공영주차장 건너편",
      "address": "서울특별시 종로구 종로 지하 200 종묘공영주차장 건너편",
      "latitude": 37.57048035,
      "longitude": 126.99663544
    },
    {
      "id": "398",
      "name": "398. 을지로3가역 3번출구",
      "address": "서울특별시 중구 을지로 지하 129 을지로3가역 3번출구",
      "latitude": 37.56660461,
      "longitude": 126.99249268
    },
    {
      "id": "399",
      "name": "399. 서울역 센트럴 자이아파트",
      "address": "서울특별시 중구 만리재로 175 서울역 센트럴 자이아파트",
      "latitude": 37.55410767,
      "longitude": 126.96540833
    },
    {
      "id": "400",
      "name": "400. 상암한화오벨리스크 1차 앞",
      "address": "서울특별시 마포구 구룡길 19",
      "latitude": 37.58752441,
      "longitude": 126.88300323
    },
    {
      "id": "401",
      "name": "401. 상암월드컵파크 10단지 앞",
      "address": "서울특별시 마포구 월드컵북로 502-36",
      "latitude": 37.58618927,
      "longitude": 126.88161469
    },
    {
      "id": "402",
      "name": "402. 상암월드컵파크 9단지 앞",
      "address": "서울특별시 마포구 월드컵북로 501",
      "latitude": 37.5829277,
      "longitude": 126.87983704
    },
    {
      "id": "403",
      "name": "403. 부엉이공원 앞",
      "address": "서울특별시 마포구 가양대로 189",
      "latitude": 37.58559036,
      "longitude": 126.88472748
    },
    {
      "id": "405",
      "name": "405. DMC빌 앞",
      "address": "서울특별시 마포구 월드컵북로60길 13",
      "latitude": 37.58265686,
      "longitude": 126.88578796
    },
    {
      "id": "406",
      "name": "406. 상암월드컵파크 7단지 앞",
      "address": "서울특별시 마포구 월드컵로42길 22",
      "latitude": 37.58108902,
      "longitude": 126.88088226
    },
    {
      "id": "407",
      "name": "407. 마포구 육아종합지원센터",
      "address": "서울특별시 마포구 상암산로1길 71",
      "latitude": 37.58063126,
      "longitude": 126.88367462
    },
    {
      "id": "408",
      "name": "408. LG CNS앞",
      "address": "서울특별시 마포구 월드컵북로 424",
      "latitude": 37.58081055,
      "longitude": 126.88665009
    },
    {
      "id": "409",
      "name": "409. 누리꿈스퀘어 옆",
      "address": "서울특별시 마포구 월드컵북로 396",
      "latitude": 37.57939911,
      "longitude": 126.88916016
    },
    {
      "id": "410",
      "name": "410. 상암중학교 옆",
      "address": "서울특별시 마포구 상암동 1691",
      "latitude": 37.57739258,
      "longitude": 126.88747406
    },
    {
      "id": "411",
      "name": "411. DMC홍보관",
      "address": "서울특별시 마포구 월드컵북로 366",
      "latitude": 37.5779953,
      "longitude": 126.89147186
    },
    {
      "id": "412",
      "name": "412. DMC산학협력연구센터 앞",
      "address": "서울특별시 마포구 매봉산로 37",
      "latitude": 37.57565689,
      "longitude": 126.89079285
    },
    {
      "id": "413",
      "name": "413. 상암월드컵파크 3단지 후문",
      "address": "서울특별시 마포구 매봉산로 8",
      "latitude": 37.57147598,
      "longitude": 126.88968658
    },
    {
      "id": "414",
      "name": "414. 상암동주민센터 옆",
      "address": "서울특별시 마포구 매봉산로2길 16",
      "latitude": 37.57822037,
      "longitude": 126.89447021
    },
    {
      "id": "415",
      "name": "415. DMC역 9번출구 앞",
      "address": "서울특별시 마포구 성암로 지하184",
      "latitude": 37.57746887,
      "longitude": 126.89736176
    },
    {
      "id": "416",
      "name": "416. 상암월드컵파크 1단지 교차로",
      "address": "서울특별시 마포구 월드컵북로 502-7",
      "latitude": 37.57566452,
      "longitude": 126.89444733
    },
    {
      "id": "417",
      "name": "417. DMC역 2번출구 옆",
      "address": "서울특별시 은평구 수색로 지하175",
      "latitude": 37.57506943,
      "longitude": 126.8999176
    },
    {
      "id": "418",
      "name": "418. 월드컵경기장역 3번출구 옆",
      "address": "서울특별시 마포구 월드컵로 지하240",
      "latitude": 37.57277679,
      "longitude": 126.8992691
    },
    {
      "id": "419",
      "name": "419. 홈플러스 마포점 앞",
      "address": "서울특별시 마포구 월드컵로 240",
      "latitude": 37.56842041,
      "longitude": 126.89942932
    },
    {
      "id": "420",
      "name": "420. 서울시 공공자전거 상암센터",
      "address": "서울특별시 마포구 월드컵북로47길 10",
      "latitude": 37.56624603,
      "longitude": 126.8961792
    },
    {
      "id": "421",
      "name": "421. 마포구청 앞",
      "address": "서울특별시 마포구 월드컵로 212",
      "latitude": 37.56574631,
      "longitude": 126.9018631
    },
    {
      "id": "422",
      "name": "422. 문화비축기지",
      "address": "서울특별시 마포구 증산로 87",
      "latitude": 37.56897736,
      "longitude": 126.89440155
    },
    {
      "id": "424",
      "name": "424. 롯데하이마트 (상암월드컵점)",
      "address": "서울특별시 상암동 1715-29",
      "latitude": 37.57361984,
      "longitude": 126.8980484
    },
    {
      "id": "425",
      "name": "425. DMC첨단산업센터",
      "address": "서울특별시 마포구 성암로330",
      "latitude": 37.58450317,
      "longitude": 126.88559723
    },
    {
      "id": "427",
      "name": "427. 성산시영아파트",
      "address": "서울특별시 마포구 월드컵북로 260",
      "latitude": 37.5693779,
      "longitude": 126.90402985
    },
    {
      "id": "428",
      "name": "428. 명보사거리",
      "address": "서울특별시 중구 을지로 지하 129 명보사거리",
      "latitude": 37.56439972,
      "longitude": 126.99143219
    },
    {
      "id": "429",
      "name": "429. 송도병원",
      "address": "서울특별시 중구 다산로 59-1 송도병원",
      "latitude": 37.54988861,
      "longitude": 127.00734711
    },
    {
      "id": "430",
      "name": "430. 장충동먹자골목 앞",
      "address": "서울특별시 중구 장충단로 193-1 KEB하나은행 장충동지점",
      "latitude": 37.56212616,
      "longitude": 127.0062561
    },
    {
      "id": "431",
      "name": "431. 청계천 영도교",
      "address": "서울특별시 중구 청계천로 400 롯데캐슬베네치아",
      "latitude": 37.5710144,
      "longitude": 127.01974487
    },
    {
      "id": "432",
      "name": "432. 마포중앙도서관",
      "address": "마포구 성산로 128",
      "latitude": 37.56333923,
      "longitude": 126.90820312
    },
    {
      "id": "433",
      "name": "433. 을지로입구역 2번출구",
      "address": "서울특별시 중구 을지로 지하 42 을지로입구역 1번출구",
      "latitude": 37.56634521,
      "longitude": 126.98229218
    },
    {
      "id": "434",
      "name": "434. 신당 래미안 버스정류장",
      "address": "서울특별시 중구 퇴계로90길 74 신당 레미안 버스정류장 (112동 인근)",
      "latitude": 37.56148911,
      "longitude": 127.02393341
    },
    {
      "id": "435",
      "name": "435. SK 남산빌딩",
      "address": "서울특별시 중구 퇴계로 33 SK 남산빌딩",
      "latitude": 37.55686188,
      "longitude": 126.97561646
    },
    {
      "id": "436",
      "name": "436. 이대역 5번출구",
      "address": "마포구 대흥동 2-1",
      "latitude": 37.55659103,
      "longitude": 126.94618988
    },
    {
      "id": "437",
      "name": "437. 대흥역 1번출구",
      "address": "마포구 대흥동 105-4",
      "latitude": 37.54846954,
      "longitude": 126.9409256
    },
    {
      "id": "438",
      "name": "438. 성산2-1 공영주차장",
      "address": "마포구 성산동 199-46",
      "latitude": 37.56472015,
      "longitude": 126.9067688
    },
    {
      "id": "440",
      "name": "440. 하늘공원 입구",
      "address": "마포구 하늘공원로 108-2",
      "latitude": 37.57012177,
      "longitude": 126.88134766
    },
    {
      "id": "441",
      "name": "441. 염천교사거리",
      "address": "서울특별시 중구 칠패로 5 서소문공원",
      "latitude": 37.55989075,
      "longitude": 126.97149658
    },
    {
      "id": "442",
      "name": "442. 서울역 서부",
      "address": "서울특별시 중구 퇴계로 33 서울로7017편의시설",
      "latitude": 37.55641556,
      "longitude": 126.9691925
    },
    {
      "id": "443",
      "name": "443. 호암아트홀",
      "address": "서울특별시 중구 세종대로7길 57-1 구두수선대207 호암아트홀",
      "latitude": 37.5621109,
      "longitude": 126.97071838
    },
    {
      "id": "445",
      "name": "445. 대한상공회의소",
      "address": "서울특별시 중구 세종대로 39 대한서울상공회의소",
      "latitude": 37.56015396,
      "longitude": 126.97410583
    },
    {
      "id": "446",
      "name": "446. 상명대입구",
      "address": "서울특별시 종로구 홍지문길 1 상명대 입구",
      "latitude": 37.60012817,
      "longitude": 126.95783234
    },
    {
      "id": "447",
      "name": "447. 신영동삼거리",
      "address": "서울특별시 종로구 진흥로 499 신영동 삼거리",
      "latitude": 37.60399246,
      "longitude": 126.96194458
    },
    {
      "id": "450",
      "name": "450. 효자동 삼거리",
      "address": "서울특별시 종로구 효자로13길 45 종로구 궁정동 98-2",
      "latitude": 37.58360291,
      "longitude": 126.97254944
    },
    {
      "id": "451",
      "name": "451. 청와대앞길",
      "address": "서울특별시 종로구 청와대로 73 종로구 세종로 1-54",
      "latitude": 37.58351517,
      "longitude": 126.97966766
    },
    {
      "id": "452",
      "name": "452. 동대문 종합시장 버스정류장",
      "address": "서울특별시 종로구 종로 239 동대문 종합시장 버스정류장",
      "latitude": 37.57123947,
      "longitude": 127.00440979
    },
    {
      "id": "453",
      "name": "453. 종로오가 지하쇼핑센터 14번출구",
      "address": "서울특별시 종로구 종로 지하 200 종로5가 지하쇼핑센터 14번출구",
      "latitude": 37.57114029,
      "longitude": 127.00067139
    },
    {
      "id": "454",
      "name": "454. 종로2가 버스정류장 (종각방향)",
      "address": "서울특별시 종로구 종로 79-1 종로2가 버스정류장 (종각방향)",
      "latitude": 37.57035828,
      "longitude": 126.98638153
    },
    {
      "id": "455",
      "name": "455. 종로6가역 버스정류장(동대문 방향)",
      "address": "서울특별시 종로구 종로 254-1 삼익한의원",
      "latitude": 37.570961,
      "longitude": 127.00605774
    },
    {
      "id": "456",
      "name": "456. 숭인2동 주민센터 입구",
      "address": "서울특별시 종로구 종로 383-1 숭인2동 주민센터 입구 (이강3대냉면)",
      "latitude": 37.57447052,
      "longitude": 127.0198288
    },
    {
      "id": "457",
      "name": "457. 종로꽃시장 입구 옆",
      "address": "서울특별시 종로구 율곡로 지하 308 종로?시장 입구 옆",
      "latitude": 37.57131958,
      "longitude": 127.00720978
    },
    {
      "id": "458",
      "name": "458. 광화문역 5번출구",
      "address": "서울특별시 종로구 세종대로 152 일민미술관",
      "latitude": 37.56989288,
      "longitude": 126.97756958
    },
    {
      "id": "461",
      "name": "461. 서울경찰청",
      "address": "서울특별시 종로구 사직로8길 31 서울지방경찰청",
      "latitude": 37.57436371,
      "longitude": 126.97236633
    },
    {
      "id": "464",
      "name": "464. 삼청동 골목",
      "address": "서울특별시 종로구 팔판길 46 삼청동 골목",
      "latitude": 37.58419037,
      "longitude": 126.98169708
    },
    {
      "id": "465",
      "name": "465. 삼청공원 앞",
      "address": "서울특별시 종로구 삼청동 25-32",
      "latitude": 37.58760452,
      "longitude": 126.9835968
    },
    {
      "id": "466",
      "name": "466. 롯데호텔",
      "address": "서울특별시 중구 을지로 30 롯데호텔",
      "latitude": 37.56584167,
      "longitude": 126.97981262
    },
    {
      "id": "468",
      "name": "468. 웨스틴 조선호텔",
      "address": "서울특별시 중구 소공로 106 서울 웨스틴조선호텔",
      "latitude": 37.56415939,
      "longitude": 126.97948456
    },
    {
      "id": "469",
      "name": "469. 회현역 1번출구",
      "address": "서울특별시 중구 퇴계로 72 리더스뷰남산",
      "latitude": 37.5592308,
      "longitude": 126.98014069
    },
    {
      "id": "470",
      "name": "470. 회현역 7번출구",
      "address": "서울특별시 중구 회현동1가 23-1",
      "latitude": 37.55974579,
      "longitude": 126.98000336
    },
    {
      "id": "471",
      "name": "471. 회현사거리 남측",
      "address": "서울특별시 중구 퇴계로 100 스테이트타워 남산",
      "latitude": 37.56035995,
      "longitude": 126.98265076
    },
    {
      "id": "472",
      "name": "472. 삼일교(시그니쳐 타워)",
      "address": "서울특별시 중구 수표동 99-1",
      "latitude": 37.56787109,
      "longitude": 126.98840332
    },
    {
      "id": "473",
      "name": "473. 을지로4가역 9번출구",
      "address": "서울특별시 중구 을지로 170",
      "latitude": 37.56605148,
      "longitude": 126.99798584
    },
    {
      "id": "474",
      "name": "474. 동대문역사문화공원역 1번출구 뒤편",
      "address": "서울특별시 중구 을지로7가 143",
      "latitude": 37.56629944,
      "longitude": 127.00849152
    },
    {
      "id": "475",
      "name": "475. DDP 패션몰",
      "address": "서울특별시 중구 신당동 853",
      "latitude": 37.56764984,
      "longitude": 127.0118103
    },
    {
      "id": "476",
      "name": "476. 광희문",
      "address": "서울특별시 중구 광희동2가 105-32",
      "latitude": 37.56443024,
      "longitude": 127.00995636
    },
    {
      "id": "477",
      "name": "477. 앰배서더 호텔 주변",
      "address": "서울특별시 중구 장충동2가 191-65",
      "latitude": 37.55928802,
      "longitude": 127.00268555
    },
    {
      "id": "479",
      "name": "479. 동대입구역 3번 출구",
      "address": "서울특별시 중구 장충동2가 199-4",
      "latitude": 37.55937576,
      "longitude": 127.00602722
    },
    {
      "id": "480",
      "name": "480. 약수역 6번 출구",
      "address": "서울특별시 중구 다산로 122 약수역 3호선",
      "latitude": 37.55432129,
      "longitude": 127.01070404
    },
    {
      "id": "483",
      "name": "483. 남산타운아파트 버스정류장",
      "address": "서울특별시 중구 다산로 32 남산타운",
      "latitude": 37.54758453,
      "longitude": 127.00643921
    },
    {
      "id": "485",
      "name": "485. 서울역5번출구",
      "address": "서울특별시 중구 세종대로 2 서울역 1호선",
      "latitude": 37.55677032,
      "longitude": 126.97319794
    },
    {
      "id": "486",
      "name": "486. 평창동주민센터 앞",
      "address": "서울특별시 종로구 평창문화로 65 평창동 주민센터",
      "latitude": 37.60627365,
      "longitude": 126.96832275
    },
    {
      "id": "488",
      "name": "488. 푸르메병원",
      "address": "마포구 상암동 632",
      "latitude": 37.58456802,
      "longitude": 126.88021088
    },
    {
      "id": "489",
      "name": "489. 구룡근린공원",
      "address": "마포구 상암동 1583",
      "latitude": 37.58320236,
      "longitude": 126.88276672
    },
    {
      "id": "490",
      "name": "490. 가온문화공원",
      "address": "마포구 상암동 1594",
      "latitude": 37.58207703,
      "longitude": 126.88766479
    },
    {
      "id": "491",
      "name": "491. 월드컵파크 4단지",
      "address": "마포구 상암동 1761",
      "latitude": 37.57597733,
      "longitude": 126.88806915
    },
    {
      "id": "493",
      "name": "493. 홍대입구역 6번출구",
      "address": "마포구 서교동 193-4",
      "latitude": 37.55657578,
      "longitude": 126.9288559
    },
    {
      "id": "494",
      "name": "494. 신수동주민센터",
      "address": "마포구 신수동 458",
      "latitude": 37.54724503,
      "longitude": 126.93502808
    },
    {
      "id": "495",
      "name": "495. 염리초등학교 앞",
      "address": "마포구 도화동 536",
      "latitude": 37.54243088,
      "longitude": 126.9469986
    },
    {
      "id": "497",
      "name": "497. 합정동주민센터 앞",
      "address": "마포구 합정동 473-2",
      "latitude": 37.551754,
      "longitude": 126.91230011
    },
    {
      "id": "498",
      "name": "498. 연남동주민센터 앞",
      "address": "마포구 연남동 250-11",
      "latitude": 37.56465149,
      "longitude": 126.92212677
    },
    {
      "id": "500",
      "name": "500. 어린이대공원역 3번출구 앞",
      "address": "서울특별시 광진구 능동로 지하210 어린이대공원역 3번출구 앞",
      "latitude": 37.54697037,
      "longitude": 127.07466888
    },
    {
      "id": "501",
      "name": "501. 광진문화예술회관 앞",
      "address": "서울특별시 광진구 능동로 76 광진구의회 앞",
      "latitude": 37.53730774,
      "longitude": 127.07035065
    },
    {
      "id": "502",
      "name": "502. 자양(뚝섬한강공원)역 1번출구 앞",
      "address": "서울특별시 광진구 능동로 10 뚝섬유원지역 1번출구 앞",
      "latitude": 37.53186035,
      "longitude": 127.06719208
    },
    {
      "id": "505",
      "name": "505. 자양사거리 광진아크로텔 앞",
      "address": "서울특별시 광진구 아차산로 355 타워더모스트 광진아크로텔",
      "latitude": 37.53701019,
      "longitude": 127.08224487
    },
    {
      "id": "506",
      "name": "506. 금호 어울림 아파트 앞",
      "address": "서울특별시 성동구 광나루로 249 송정금호어울림 아파트 앞",
      "latitude": 37.54906082,
      "longitude": 127.05779266
    },
    {
      "id": "508",
      "name": "508. 성수아카데미타워 앞",
      "address": "서울특별시 성동구 성수이로 118 라성아카데미타워 앞",
      "latitude": 37.54516983,
      "longitude": 127.05757141
    },
    {
      "id": "510",
      "name": "510. 뚝도아리수정수센터 버스정류소 옆",
      "address": "서울특별시 성동구 왕십리로11길 9 서울숲남문 버스정류소 옆",
      "latitude": 37.54122162,
      "longitude": 127.04380035
    },
    {
      "id": "511",
      "name": "511. 서울숲역 5번 출구 옆",
      "address": "서울특별시 성동구 왕십리로 지하77 서울숲역 4번 출구 옆",
      "latitude": 37.54458237,
      "longitude": 127.04460907
    },
    {
      "id": "512",
      "name": "512. 뚝섬역 1번 출구 옆",
      "address": "서울특별시 성동구 아차산로 18 뚝섬역 1번 출구 옆",
      "latitude": 37.5485611,
      "longitude": 127.0450058
    },
    {
      "id": "513",
      "name": "513. 뚝섬역 5번 출구 정류소 옆",
      "address": "서울특별시 성동구 아차산로 18 뚝섬역 5번 출구 정류소 옆",
      "latitude": 37.54630661,
      "longitude": 127.04980469
    },
    {
      "id": "514",
      "name": "514. 성수사거리 버스정류장 앞",
      "address": "서울특별시 성동구 아차산로 171 성수사거리 버스정류장 앞",
      "latitude": 37.54257965,
      "longitude": 127.06330872
    },
    {
      "id": "515",
      "name": "515. 광양중학교 앞",
      "address": "서울특별시 광진구 자양로3길 7 광양중학교 앞",
      "latitude": 37.53023529,
      "longitude": 127.08683014
    },
    {
      "id": "516",
      "name": "516. 광진메디칼 앞",
      "address": "서울특별시 광진구 광나루로 355 광진메디컬앞",
      "latitude": 37.54840469,
      "longitude": 127.06936646
    },
    {
      "id": "518",
      "name": "518. 청계천 박물관 앞",
      "address": "서울특별시 성동구 마장동 610 청계천 박물관 앞",
      "latitude": 37.57152557,
      "longitude": 127.03535461
    },
    {
      "id": "519",
      "name": "519. 양지사거리",
      "address": "서울특별시 성동구 홍익동 590 양지사거리",
      "latitude": 37.56699371,
      "longitude": 127.02991486
    },
    {
      "id": "520",
      "name": "520. 상왕십리역 4번 출구 앞",
      "address": "서울특별시 성동구 하왕십리동 960-3 상왕십리역 4번 출구 앞",
      "latitude": 37.56385803,
      "longitude": 127.03031921
    },
    {
      "id": "521",
      "name": "521. 왕십리역 11번 출구 앞",
      "address": "서울특별시 성동구 행당동 188-9 왕십리역 11번 출구 앞",
      "latitude": 37.56144714,
      "longitude": 127.03491974
    },
    {
      "id": "522",
      "name": "522. 금호역 1번출구 앞",
      "address": "서울특별시 성동구 금호동3가 1575-3 금호역 1번출구 앞",
      "latitude": 37.5486412,
      "longitude": 127.01642609
    },
    {
      "id": "523",
      "name": "523. 옥수동성당 옆",
      "address": "서울특별시 성동구 옥수동 산5-148 옥수동성당 옆",
      "latitude": 37.54366302,
      "longitude": 127.01406097
    },
    {
      "id": "524",
      "name": "524. 래미안금호하이리버 아파트 102동 옆",
      "address": "서울특별시 성동구 금호동2가 1220-1 래미안금호하이리버 아파트 102동 옆",
      "latitude": 37.55220032,
      "longitude": 127.02505493
    },
    {
      "id": "525",
      "name": "525. 한양대병원사거리",
      "address": "서울특별시 성동구 행당동 20-2 한양대병원사거리",
      "latitude": 37.55805206,
      "longitude": 127.04035187
    },
    {
      "id": "526",
      "name": "526. 용답토속공원 앞",
      "address": "서울특별시 성동구 용답동 224-1 용답토속공원 앞",
      "latitude": 37.56351089,
      "longitude": 127.05672455
    },
    {
      "id": "529",
      "name": "529. 장한평역 8번 출구 앞",
      "address": "서울특별시 성동구 용답동 224-3 장안평역 8번 출구 앞",
      "latitude": 37.56137085,
      "longitude": 127.06365967
    },
    {
      "id": "530",
      "name": "530. 청계벽산아파트 앞",
      "address": "서울특별시 성동구 하왕십리동 286-24 청계벽산아파트 텐즈힐아파트 정류소",
      "latitude": 37.56874847,
      "longitude": 127.03040314
    },
    {
      "id": "533",
      "name": "533. 금남시장 교차로",
      "address": "서울특별시 성동구 금호동4가 1101 우리은행 금호동 지점 앞",
      "latitude": 37.54814911,
      "longitude": 127.02108765
    },
    {
      "id": "534",
      "name": "534. 금호사거리",
      "address": "서울특별시 성동구 금호동2가 1205-1 금호사거리",
      "latitude": 37.54863358,
      "longitude": 127.02572632
    },
    {
      "id": "535",
      "name": "535. 응봉삼거리",
      "address": "서울특별시 성동구 응봉동 134-26 응봉삼거리",
      "latitude": 37.5539856,
      "longitude": 127.03359222
    },
    {
      "id": "536",
      "name": "536. 행당역 2번출구 앞",
      "address": "서울특별시 성동구 행당동 347-11 행당역 2번출구 앞",
      "latitude": 37.55735016,
      "longitude": 127.02921295
    },
    {
      "id": "537",
      "name": "537. 한양대후문역 부근",
      "address": "서울특별시 성동구 행당동 10 한양대후문역 부근 (양키캔들 앞)",
      "latitude": 37.56035614,
      "longitude": 127.04139709
    },
    {
      "id": "539",
      "name": "539. 군자교교차로",
      "address": "서울특별시 광진구 중곡동 263-1 군자교교차로",
      "latitude": 37.55979538,
      "longitude": 127.07420349
    },
    {
      "id": "540",
      "name": "540. 군자역 7번출구 베스트샵 앞",
      "address": "서울특별시 광진구 군자동 499 군자역 7번출구 베스트샵 앞",
      "latitude": 37.55603027,
      "longitude": 127.0786438
    },
    {
      "id": "542",
      "name": "542. 강변역 4번출구 뒤",
      "address": "서울특별시 광진구 구의동 546-6 강변역 1,4번 출구 아래",
      "latitude": 37.53582382,
      "longitude": 127.09416199
    },
    {
      "id": "543",
      "name": "543. 구의공원(테크노마트 앞)",
      "address": "서울특별시 광진구 구의동 546-3 구의공원(테크노마트 앞)",
      "latitude": 37.53598785,
      "longitude": 127.09462738
    },
    {
      "id": "544",
      "name": "544. 광남중학교",
      "address": "서울특별시 광진구 광장동 561-15 광남중학교",
      "latitude": 37.54072952,
      "longitude": 127.10290527
    },
    {
      "id": "546",
      "name": "546. 잠실대교북단 교차로",
      "address": "서울특별시 광진구 자양동 722 잠실대교북단 교차로",
      "latitude": 37.53278351,
      "longitude": 127.08495331
    },
    {
      "id": "548",
      "name": "548. 자양나들목",
      "address": "서울특별시 광진구 자양동 738 자양나들목",
      "latitude": 37.5297699,
      "longitude": 127.07485962
    },
    {
      "id": "549",
      "name": "549. 아차산역 3번출구",
      "address": "서울특별시 광진구 구의동 96 아차산역 3번출구",
      "latitude": 37.55122375,
      "longitude": 127.08970642
    },
    {
      "id": "550",
      "name": "550. 서울시설공단 앞",
      "address": "서울특별시 성동구 마장동 610 서울시설공단 앞",
      "latitude": 37.57164001,
      "longitude": 127.03565979
    },
    {
      "id": "551",
      "name": "551. 구의삼성쉐르빌 앞",
      "address": "서울특별시 광진구 구의강변로 106 구의삼성쉐르빌 앞",
      "latitude": 37.5398407,
      "longitude": 127.09388733
    },
    {
      "id": "552",
      "name": "552. 대림아크로리버 앞",
      "address": "서울특별시 광진구 구의강변로 64 대림아크로리버 앞",
      "latitude": 37.53657913,
      "longitude": 127.0929718
    },
    {
      "id": "553",
      "name": "553. 중곡 성원아파트 앞",
      "address": "서울특별시 광진구 동일로 459 중곡 성원APT 앞",
      "latitude": 37.57125473,
      "longitude": 127.07980347
    },
    {
      "id": "555",
      "name": "555. 구의3동주민센터",
      "address": "서울특별시 광진구 강변역로 17 구의3동주민센터",
      "latitude": 37.53784943,
      "longitude": 127.09217072
    },
    {
      "id": "556",
      "name": "556. 달맞이공원",
      "address": "서울특별시 성동구 금호동4가 367-1 달맞이공원",
      "latitude": 37.54205322,
      "longitude": 127.020401
    },
    {
      "id": "557",
      "name": "557. 도선동 주민센터 앞",
      "address": "서울특별시 성동구 무학로10길 6 도선동 주민센터 앞",
      "latitude": 37.56764221,
      "longitude": 127.0256958
    },
    {
      "id": "558",
      "name": "558. 성동광진 교육지원청 앞",
      "address": "서울특별시 성동구 고산자로 260 성동광진 교육지원청 앞",
      "latitude": 37.56460571,
      "longitude": 127.03652191
    },
    {
      "id": "559",
      "name": "559. 왕십리역 4번 출구 건너편",
      "address": "서울특별시 성동구 왕십리광장로 10-1 왕십리역 4번 출구 건너편",
      "latitude": 37.56109619,
      "longitude": 127.03679657
    },
    {
      "id": "560",
      "name": "560. 비전교회 앞",
      "address": "서울특별시 성동구 동일로 213 비전교회 앞",
      "latitude": 37.55120468,
      "longitude": 127.06893158
    },
    {
      "id": "561",
      "name": "561. 서울숲역 2번출구 앞",
      "address": "서울특별시 성동구 왕십리로 64 서울숲역 2번출구 앞",
      "latitude": 37.54281616,
      "longitude": 127.0446701
    },
    {
      "id": "563",
      "name": "563. 성동세무서 건너편",
      "address": "서울특별시 성동구 광나루로 302 성동세무서 건너편",
      "latitude": 37.5479126,
      "longitude": 127.06275177
    },
    {
      "id": "564",
      "name": "564. 금호역 3번출구",
      "address": "서울특별시 성동구 동호로 99 금호역 3번출구",
      "latitude": 37.54792786,
      "longitude": 127.01557159
    },
    {
      "id": "565",
      "name": "565. 옥수역 3번출구",
      "address": "서울특별시 성동구 옥수동 192-2",
      "latitude": 37.54136658,
      "longitude": 127.01776123
    },
    {
      "id": "568",
      "name": "568. 청계8가 사거리 B",
      "address": "서울특별시 성동구 청계천로 417 청계8가사거리 부근",
      "latitude": 37.57110214,
      "longitude": 127.02355957
    },
    {
      "id": "569",
      "name": "569. 응봉현대아파트 정류소",
      "address": "서울특별시 성동구 독서당로 381 응봉동현대아파트 정류소",
      "latitude": 37.54958344,
      "longitude": 127.03024292
    },
    {
      "id": "571",
      "name": "571. 세종대학교 대양AI센터",
      "address": "서울특별시 광진구 군자동 98-22",
      "latitude": 37.55039597,
      "longitude": 127.07585907
    },
    {
      "id": "573",
      "name": "573. 구의문주차장 앞",
      "address": "서울특별시 광진구 능동로 216 구의문주차장 앞",
      "latitude": 37.54523087,
      "longitude": 127.08473206
    },
    {
      "id": "574",
      "name": "574. 아차산역4번출구",
      "address": "서울특별시 광진구 능동로 216 아차산역4번출구",
      "latitude": 37.55184937,
      "longitude": 127.08898163
    },
    {
      "id": "575",
      "name": "575. 대원중고교 입구(대하빌딩)",
      "address": "서울특별시 광진구 용마산로 120 중앙농협 중곡지점",
      "latitude": 37.56429291,
      "longitude": 127.08693695
    },
    {
      "id": "576",
      "name": "576. 광나루역 3번 출구",
      "address": "서울특별시 광진구 아차산로 552 광나루역 3번 출구",
      "latitude": 37.54483032,
      "longitude": 127.10426331
    },
    {
      "id": "577",
      "name": "577. 광진청소년수련관",
      "address": "서울특별시 광진구 구천면로 2 광진청소년수련관",
      "latitude": 37.54689789,
      "longitude": 127.10562897
    },
    {
      "id": "578",
      "name": "578. 성동세무서 부근",
      "address": "서울특별시 성동구 광나루로 297 성동세무서",
      "latitude": 37.54829025,
      "longitude": 127.06246185
    },
    {
      "id": "579",
      "name": "579. 마장역 4번출구",
      "address": "서울특별시 성동구 마장로 292-1 마장역 4번출구",
      "latitude": 37.56520462,
      "longitude": 127.04184723
    },
    {
      "id": "582",
      "name": "582. 경일중학교 앞",
      "address": "서울특별시 성동구 성수일로 27 경일중학교 앞",
      "latitude": 37.54317856,
      "longitude": 127.0490799
    },
    {
      "id": "583",
      "name": "583. 청계천 생태교실 앞",
      "address": "서울특별시 성동구 마장로39길 51 청계천 생태교실 앞",
      "latitude": 37.56797028,
      "longitude": 127.04689026
    },
    {
      "id": "584",
      "name": "584. 광진광장 교통섬",
      "address": "서울특별시 광진구 군자동 374-8 광진광장 교통섬",
      "latitude": 37.54782867,
      "longitude": 127.07263184
    },
    {
      "id": "585",
      "name": "585. 성수2가1동 공영주차장 인근",
      "address": "서울특별시 성동구 성수동2가 569-3 성수2가1동 공영주차장 인근",
      "latitude": 37.53680801,
      "longitude": 127.05548859
    },
    {
      "id": "586",
      "name": "586. 마장동 주민센터",
      "address": "서울특별시 성동구 마장로42길 14 마장동 주민센터",
      "latitude": 37.56594086,
      "longitude": 127.0453949
    },
    {
      "id": "587",
      "name": "587. 유니베라 앞",
      "address": "서울특별시 성동구 성수동2가 276-5 KEB하나은행 성수중앙지점",
      "latitude": 37.54541779,
      "longitude": 127.05264282
    },
    {
      "id": "588",
      "name": "588. 뚝섬 유원지역",
      "address": "서울특별시 광진구 능동로 10 뚝섬유원지역",
      "latitude": 37.53268814,
      "longitude": 127.06749725
    },
    {
      "id": "590",
      "name": "590. 건국대학교 (입학정보관)",
      "address": "서울특별시 광진구 능동로 120 입학정보관",
      "latitude": 37.53989029,
      "longitude": 127.07336426
    },
    {
      "id": "591",
      "name": "591. 건국대학교 (행정관)",
      "address": "서울특별시 광진구 능동로 120 행정관",
      "latitude": 37.54277802,
      "longitude": 127.07537079
    },
    {
      "id": "592",
      "name": "592. 건국대학교 학생회관",
      "address": "서울특별시 광진구 능동로 120 학생회관",
      "latitude": 37.54191208,
      "longitude": 127.07763672
    },
    {
      "id": "593",
      "name": "593. 자양중앙나들목",
      "address": "서울특별시 광진구 자양강변길 301 광진구 자양2동 705",
      "latitude": 37.52845383,
      "longitude": 127.07803345
    },
    {
      "id": "594",
      "name": "594. 중랑물재생센터(서울새활용플라자)",
      "address": "서울특별시 성동구 자동차시장길 49 중랑물재생센터",
      "latitude": 37.55830383,
      "longitude": 127.05805969
    },
    {
      "id": "600",
      "name": "600. 휘경2동 주민센터",
      "address": "서울특별시 동대문구 한천로 329 휘경2동 주민센터",
      "latitude": 37.58991241,
      "longitude": 127.06867981
    },
    {
      "id": "602",
      "name": "602. 장안동 사거리",
      "address": "서울특별시 동대문구 장한로 25길 2 장안동 사거리",
      "latitude": 37.57217407,
      "longitude": 127.07138824
    },
    {
      "id": "605",
      "name": "605. 신설동역8번출구",
      "address": "서울특별시 동대문구 천호대로 26 신설동역9번출구",
      "latitude": 37.57419968,
      "longitude": 127.02649689
    },
    {
      "id": "606",
      "name": "606. 서울반도체고 앞",
      "address": "서울특별시 동대문구 겸재로 21 휘경공고앞",
      "latitude": 37.58462524,
      "longitude": 127.07028961
    },
    {
      "id": "607",
      "name": "607. 신이문역 2번출구",
      "address": "서울특별시 동대문구 이문동186-1 신이문역 2번출구",
      "latitude": 37.60271072,
      "longitude": 127.06786346
    },
    {
      "id": "608",
      "name": "608. 전농삼성아파트",
      "address": "서울특별시 동대문구 전농로 192 전농삼성아파트",
      "latitude": 37.58131027,
      "longitude": 127.05534363
    },
    {
      "id": "609",
      "name": "609. 제기2교",
      "address": "서울특별시 동대문구 제기동 122-388",
      "latitude": 37.58774567,
      "longitude": 127.03738403
    },
    {
      "id": "610",
      "name": "610. 동대문중 교차로",
      "address": "서울특별시 동대문구 답십리동 524-1 동대문중 교차로",
      "latitude": 37.57308578,
      "longitude": 127.05216217
    },
    {
      "id": "612",
      "name": "612. 시립동부병원 앞 사거리",
      "address": "서울특별시 동대문구 용두동 237-10 시립동부병원 앞 사거리",
      "latitude": 37.57366562,
      "longitude": 127.03081512
    },
    {
      "id": "613",
      "name": "613. 신설동역 10번출구 앞",
      "address": "서울특별시 동대문구 신설동 92-34 신설동역 10번출구 앞",
      "latitude": 37.57527161,
      "longitude": 127.02346802
    },
    {
      "id": "614",
      "name": "614. 용두동 사거리",
      "address": "서울특별시 동대문구 용두동 237-10 용두동 사거리",
      "latitude": 37.57768631,
      "longitude": 127.03101349
    },
    {
      "id": "615",
      "name": "615. 용두동 래미안허브리츠아파트 앞",
      "address": "서울특별시 동대문구 용두동 696-13 용두동 레미안허브리츠아파트 앞",
      "latitude": 37.57638168,
      "longitude": 127.03511047
    },
    {
      "id": "616",
      "name": "616. 서울시립대 정문 앞 A",
      "address": "서울특별시 동대문구 전농동 135-5 시립대 앞",
      "latitude": 37.58256149,
      "longitude": 127.05436707
    },
    {
      "id": "617",
      "name": "617. 청솔우성아파트 앞",
      "address": "서울특별시 동대문구 답십리동 94-2 청솔우성아파트 앞",
      "latitude": 37.57420349,
      "longitude": 127.05769348
    },
    {
      "id": "621",
      "name": "621. 전농초등학교 건너편",
      "address": "서울특별시 동대문구 전농동 693-1",
      "latitude": 37.57489014,
      "longitude": 127.05353546
    },
    {
      "id": "622",
      "name": "622. 전농사거리 교통섬",
      "address": "서울특별시 동대문구 사가정로 119 전농사거리 교통섬(전농서적 앞)",
      "latitude": 37.57779312,
      "longitude": 127.05783081
    },
    {
      "id": "623",
      "name": "623. 서울시립대 정문 앞 B",
      "address": "서울특별시 동대문구 서울시립대로 161 서울시립대 정문 앞(시더프라자빌딩 앞)",
      "latitude": 37.58369827,
      "longitude": 127.0538559
    },
    {
      "id": "624",
      "name": "624. 전농동 동아아파트 앞",
      "address": "서울특별시 동대문구 서울시립대로 31 전농동 동아아파트 앞(T-World 앞 보도)",
      "latitude": 37.57418823,
      "longitude": 127.04589081
    },
    {
      "id": "626",
      "name": "626. 군자교 서측 녹지대",
      "address": "서울특별시 동대문구 장한로6길 95 군자교녹지대 동측 앞",
      "latitude": 37.56115341,
      "longitude": 127.07096863
    },
    {
      "id": "627",
      "name": "627. 장안동삼거리 교통섬",
      "address": "서울특별시 동대문구 사가정로 240 장안동삼거리 교통섬",
      "latitude": 37.57863235,
      "longitude": 127.07190704
    },
    {
      "id": "628",
      "name": "628. 휘봉고등학교 앞",
      "address": "서울특별시 동대문구 한천로 290 휘봉고등학교 앞",
      "latitude": 37.58677673,
      "longitude": 127.06764221
    },
    {
      "id": "630",
      "name": "630. 동대문구 보건소",
      "address": "서울특별시 동대문구 천호대로 145 동대문구 보건소",
      "latitude": 37.5747757,
      "longitude": 127.04036713
    },
    {
      "id": "631",
      "name": "631. 답십리역 1번출구",
      "address": "서울특별시 동대문구 천호대로 269 답십리역 1번출구",
      "latitude": 37.5681839,
      "longitude": 127.05127716
    },
    {
      "id": "633",
      "name": "633. 청량리 기업은행 앞",
      "address": "서울특별시 동대문구 홍릉로 1 청량리 기업은행 앞",
      "latitude": 37.58049774,
      "longitude": 127.04472351
    },
    {
      "id": "634",
      "name": "634. 외국어대 정문 앞",
      "address": "서울특별시 동대문구 이문로 107 외국어대 정문 앞",
      "latitude": 37.59601974,
      "longitude": 127.05982971
    },
    {
      "id": "635",
      "name": "635. 시조사 앞",
      "address": "서울특별시 동대문구 이문로1길 11 시조사 앞 (청량고정문 옆)",
      "latitude": 37.58751678,
      "longitude": 127.05277252
    },
    {
      "id": "636",
      "name": "636. 세종대왕기념관 교차로",
      "address": "서울특별시 동대문구 회기로 56 세종대왕기념관 교차로",
      "latitude": 37.59073639,
      "longitude": 127.04258728
    },
    {
      "id": "637",
      "name": "637. KAIST 경영대학 앞",
      "address": "서울특별시 동대문구 회기로 85 KAIST 경영대학 앞",
      "latitude": 37.59161377,
      "longitude": 127.04579163
    },
    {
      "id": "638",
      "name": "638. 서울시립대 정보기술관",
      "address": "서울특별시 동대문구 한천로43길 12-14 서울시립대 정보기술관",
      "latitude": 37.58300781,
      "longitude": 127.06097412
    },
    {
      "id": "639",
      "name": "639. 서울시립대 후문",
      "address": "서울특별시 동대문구 한천로43길 12-14 서울시립대 후문",
      "latitude": 37.58504486,
      "longitude": 127.06027222
    },
    {
      "id": "640",
      "name": "640. 동대문경찰서 교차로",
      "address": "서울특별시 동대문구 홍릉로 26-1 거리가게",
      "latitude": 37.58255005,
      "longitude": 127.04460144
    },
    {
      "id": "641",
      "name": "641. 용두역 4번출구",
      "address": "서울특별시 동대문구 청계천로 563 용두역 4번출구",
      "latitude": 37.57375336,
      "longitude": 127.03853607
    },
    {
      "id": "642",
      "name": "642. 신답역 사거리",
      "address": "서울특별시 동대문구 천호대로 231",
      "latitude": 37.57035446,
      "longitude": 127.0484314
    },
    {
      "id": "643",
      "name": "643. 동대문구민체육센터 (육교아래)",
      "address": "서울특별시 동대문구 장안동 473-6",
      "latitude": 37.56697083,
      "longitude": 127.07429504
    },
    {
      "id": "648",
      "name": "648. 장안동위더스빌옆",
      "address": "서울특별시 동대문구 한천로 42 장안동위더스빌옆",
      "latitude": 37.56669998,
      "longitude": 127.06242371
    },
    {
      "id": "650",
      "name": "650. 중랑교사거리",
      "address": "서울특별시 동대문구 망우로 131 중랑교사거리",
      "latitude": 37.59153366,
      "longitude": 127.06774139
    },
    {
      "id": "652",
      "name": "652. 답십리 래미안엘파인아파트 입구",
      "address": "서울특별시 동대문구 사가정로 190 답십리 래미안엘파인아파트 입구",
      "latitude": 37.5764389,
      "longitude": 127.06557465
    },
    {
      "id": "654",
      "name": "654. 전농동 텃골공원",
      "address": "서울특별시 동대문구 사가정로 65 전농동 텃골공원",
      "latitude": 37.57762146,
      "longitude": 127.05210876
    },
    {
      "id": "656",
      "name": "656. 영휘원 교차로",
      "address": "서울특별시 동대문구 홍릉로 78-1 영휘원 교차로",
      "latitude": 37.58712006,
      "longitude": 127.04325104
    },
    {
      "id": "657",
      "name": "657. 동대문롯데캐슬아파트 앞",
      "address": "서울특별시 동대문구 전농동 695-5",
      "latitude": 37.57554626,
      "longitude": 127.04881287
    },
    {
      "id": "661",
      "name": "661. 경희대학교 청운관",
      "address": "서울특별시 동대문구 경희대로 23 경희의료원",
      "latitude": 37.59460068,
      "longitude": 127.05197144
    },
    {
      "id": "663",
      "name": "663. 외대앞역 3번출구",
      "address": "서울특별시 동대문구 휘경로14가길 31 외대앞역 4번출구",
      "latitude": 37.59489059,
      "longitude": 127.06302643
    },
    {
      "id": "664",
      "name": "664. 서울시립대 건설공학관",
      "address": "서울특별시 동대문구 서울시립대로 163 서울시립대학교",
      "latitude": 37.58412933,
      "longitude": 127.05793762
    },
    {
      "id": "665",
      "name": "665. 이문동 쌍용아파트 정문",
      "address": "서울특별시 동대문구 한천로58길 47 쌍용아파트",
      "latitude": 37.59960556,
      "longitude": 127.06864166
    },
    {
      "id": "666",
      "name": "666. 이문대성유니드아파트 앞",
      "address": "서울특별시 동대문구 한천로58길 151 이문동대성유니드아파트",
      "latitude": 37.60362244,
      "longitude": 127.0708313
    },
    {
      "id": "667",
      "name": "667. 청량차도 육교 밑",
      "address": "서울특별시 동대문구 청량리동 49",
      "latitude": 37.58670807,
      "longitude": 127.04688263
    },
    {
      "id": "669",
      "name": "669. 청계한신휴플러스앞 삼거리",
      "address": "서울특별시 동대문구 서울시립대로 14 청계한신휴플러스",
      "latitude": 37.57214737,
      "longitude": 127.04460907
    },
    {
      "id": "670",
      "name": "670. 삼육서울병원 버스정류장",
      "address": "서울특별시 동대문구 망우로 74",
      "latitude": 37.5896759,
      "longitude": 127.06151581
    },
    {
      "id": "671",
      "name": "671. 대광빌딩",
      "address": "서울특별시 동대문구 신설동 81-197",
      "latitude": 37.57734299,
      "longitude": 127.02337646
    },
    {
      "id": "672",
      "name": "672. 대광고등학교",
      "address": "서울특별시 동대문구 안암로 6 대광중고등학교",
      "latitude": 37.57875061,
      "longitude": 127.02402496
    },
    {
      "id": "673",
      "name": "673. 안암골벽산아파트(후문)",
      "address": "서울특별시 동대문구 약령시로 25 안암골 벽산아파트",
      "latitude": 37.58407974,
      "longitude": 127.03103638
    },
    {
      "id": "674",
      "name": "674. 고대앞사거리 교통섬",
      "address": "서울특별시 성북구 안암동5가 40-11",
      "latitude": 37.58655167,
      "longitude": 127.03314209
    },
    {
      "id": "676",
      "name": "676. FITI시험연구원 앞",
      "address": "서울특별시 동대문구 제기동 891-2",
      "latitude": 37.58143234,
      "longitude": 127.03547668
    },
    {
      "id": "678",
      "name": "678. 장안힐스테이트(아) 앞",
      "address": "서울특별시 동대문구 장안벚꽃로1길 7 장안 힐스테이트",
      "latitude": 37.57655716,
      "longitude": 127.0743103
    },
    {
      "id": "679",
      "name": "679. 전농SK아파트 앞",
      "address": "서울특별시 동대문구 사가정로 150",
      "latitude": 37.57787704,
      "longitude": 127.06168365
    },
    {
      "id": "680",
      "name": "680. 꿈마루어린이도서관 앞",
      "address": "서울특별시 동대문구 이문동 346-131",
      "latitude": 37.59238434,
      "longitude": 127.05741119
    },
    {
      "id": "681",
      "name": "681. 서울특별시 동부교육지원청(육교)",
      "address": "서울특별시 동대문구 전농로 168 서울동부교육지원청",
      "latitude": 37.5798378,
      "longitude": 127.0563736
    },
    {
      "id": "700",
      "name": "700. KB국민은행 염창역 지점 앞",
      "address": "서울특별시 양천구 목동 559",
      "latitude": 37.5468483,
      "longitude": 126.87277222
    },
    {
      "id": "701",
      "name": "701. 목동사거리 부근",
      "address": "서울특별시 양천구 목동 813",
      "latitude": 37.53280258,
      "longitude": 126.86392975
    },
    {
      "id": "702",
      "name": "702. 목4동주민센터 옆",
      "address": "서울특별시 양천구 목동 904-3",
      "latitude": 37.53254318,
      "longitude": 126.86872864
    },
    {
      "id": "703",
      "name": "703. 오목교역 7번출구 앞",
      "address": "서울특별시 양천구 목동 451",
      "latitude": 37.52362823,
      "longitude": 126.87524414
    },
    {
      "id": "704",
      "name": "704. 남부법원검찰청 교차로",
      "address": "서울특별시 양천구 신정동 1095",
      "latitude": 37.52325439,
      "longitude": 126.86490631
    },
    {
      "id": "706",
      "name": "706. 신정네거리역",
      "address": "서울특별시 양천구 신월동 894",
      "latitude": 37.5218811,
      "longitude": 126.85175323
    },
    {
      "id": "708",
      "name": "708. 서울출입국관리사무소 앞",
      "address": "서울특별시 양천구 신정동 319-3",
      "latitude": 37.51897049,
      "longitude": 126.8699646
    },
    {
      "id": "709",
      "name": "709. 신정3동 현장민원실 앞",
      "address": "서울특별시 양천구 신정동 760-2",
      "latitude": 37.51158524,
      "longitude": 126.84156036
    },
    {
      "id": "710",
      "name": "710. 금옥여고보도육교",
      "address": "신정로 213",
      "latitude": 37.50971222,
      "longitude": 126.84416962
    },
    {
      "id": "711",
      "name": "711. 신일해피트리아파트 앞",
      "address": "서울특별시 양천구 신월동 1063-4",
      "latitude": 37.51705933,
      "longitude": 126.84848785
    },
    {
      "id": "713",
      "name": "713. 양서중학교 옆",
      "address": "서울특별시 양천구 신월동 790",
      "latitude": 37.53304672,
      "longitude": 126.82995605
    },
    {
      "id": "714",
      "name": "714. 한국SGI 양천문화회관 앞",
      "address": "서울특별시 양천구 신월동 790",
      "latitude": 37.532547,
      "longitude": 126.83080292
    },
    {
      "id": "716",
      "name": "716. 신정6동 주민센터 인근",
      "address": "서울특별시 양천구 목동서로 355",
      "latitude": 37.51731873,
      "longitude": 126.86431885
    },
    {
      "id": "719",
      "name": "719. 홍익병원앞 교차로",
      "address": "서울특별시 양천구 등촌로 2",
      "latitude": 37.53109741,
      "longitude": 126.86402893
    },
    {
      "id": "720",
      "name": "720. 서울강월초등학교 앞",
      "address": "서울특별시 양천구 신월로 97",
      "latitude": 37.5161972,
      "longitude": 126.8348999
    },
    {
      "id": "722",
      "name": "722. 경서농협 버스정류장(우리은행신정동지점방향)",
      "address": "서울특별시 양천구 신월로 328",
      "latitude": 37.52151108,
      "longitude": 126.85738373
    },
    {
      "id": "723",
      "name": "723. SBS방송국",
      "address": "서울특별시 양천구 목동서로161",
      "latitude": 37.52916336,
      "longitude": 126.87274933
    },
    {
      "id": "724",
      "name": "724. 계남공원 입구 주출입구 좌측",
      "address": "서울특별시 양천구 신정동 621-14",
      "latitude": 37.51059723,
      "longitude": 126.85732269
    },
    {
      "id": "726",
      "name": "726. 목동3단지 시내버스정류장",
      "address": "서울특별시 양천구 목동중앙로 49",
      "latitude": 37.5343895,
      "longitude": 126.86959839
    },
    {
      "id": "729",
      "name": "729. 서부식자재마트 건너편",
      "address": "서울특별시 양천구 신정동 236",
      "latitude": 37.51037979,
      "longitude": 126.8667984
    },
    {
      "id": "731",
      "name": "731. 서울시 도로환경관리센터",
      "address": "서울특별시 양천구 목동동로 316-6",
      "latitude": 37.5298996,
      "longitude": 126.87654114
    },
    {
      "id": "733",
      "name": "733. 신정이펜하우스314동",
      "address": "서울특별시 양천구 신정이펜1로50",
      "latitude": 37.51409912,
      "longitude": 126.83100128
    },
    {
      "id": "734",
      "name": "734. 신트리공원 입구",
      "address": "서울특별시 양천구 신정동 310-8",
      "latitude": 37.51395035,
      "longitude": 126.85605621
    },
    {
      "id": "735",
      "name": "735. 영도초등학교",
      "address": "서울특별시 양천구 목동중앙로 70",
      "latitude": 37.53637695,
      "longitude": 126.87151337
    },
    {
      "id": "736",
      "name": "736. 오솔길공원",
      "address": "서울특별시 양천구 남부순환로70길11-9",
      "latitude": 37.52219009,
      "longitude": 126.83670044
    },
    {
      "id": "737",
      "name": "737. 장수공원",
      "address": "서울특별시 양천구 신월로 894",
      "latitude": 37.52231216,
      "longitude": 126.8490448
    },
    {
      "id": "739",
      "name": "739. 신월사거리",
      "address": "서울특별시 양천구 신월동 263",
      "latitude": 37.53699493,
      "longitude": 126.82728577
    },
    {
      "id": "740",
      "name": "740. 으뜸공원",
      "address": "서울특별시 양천구 가로공원로 133",
      "latitude": 37.53636932,
      "longitude": 126.83171082
    },
    {
      "id": "741",
      "name": "741. 화곡로 입구 교차로",
      "address": "서울특별시 양천구 신월동 258",
      "latitude": 37.53952026,
      "longitude": 126.82540131
    },
    {
      "id": "742",
      "name": "742. 등촌역 5번 출구 뒤",
      "address": "서울특별시 양천구 등촌로 236",
      "latitude": 37.55073166,
      "longitude": 126.86457825
    },
    {
      "id": "743",
      "name": "743. 현대6차아파트 101동 옆",
      "address": "서울특별시 양천구 신정동 735-5",
      "latitude": 37.50889969,
      "longitude": 126.84268188
    },
    {
      "id": "744",
      "name": "744. 신목동역 2번 출구",
      "address": "서울특별시 양천구 목동중앙로 212 앞",
      "latitude": 37.54384232,
      "longitude": 126.88254547
    },
    {
      "id": "745",
      "name": "745. 강서초등학교",
      "address": "서울특별시 양천구 오목로 31 부근",
      "latitude": 37.52228165,
      "longitude": 126.83969879
    },
    {
      "id": "746",
      "name": "746. 목동2단지 상가",
      "address": "서울특별시 양천구 목동 902-5",
      "latitude": 37.53650284,
      "longitude": 126.87774658
    },
    {
      "id": "747",
      "name": "747. 목동3단지 상가",
      "address": "서울특별시 양천구 목동 903-6",
      "latitude": 37.53458023,
      "longitude": 126.8756485
    },
    {
      "id": "748",
      "name": "748. 목동운동장",
      "address": "서울특별시 양천구 안양천로 939",
      "latitude": 37.53025055,
      "longitude": 126.87930298
    },
    {
      "id": "749",
      "name": "749. 이대목동병원보도육교",
      "address": "서울특별시 양천구 목동 911-10",
      "latitude": 37.53722763,
      "longitude": 126.88661194
    },
    {
      "id": "750",
      "name": "750. 연의근린공원 건너편",
      "address": "서울특별시 양천구 신정로7길 92",
      "latitude": 37.51222992,
      "longitude": 126.83578491
    },
    {
      "id": "752",
      "name": "752. 성원2차 아파트",
      "address": "서울특별시 양천구 목동중앙남로 100",
      "latitude": 37.54218292,
      "longitude": 126.86330414
    },
    {
      "id": "754",
      "name": "754. 목동1단지아파트 118동 앞",
      "address": "양천구 목동서로 38",
      "latitude": 37.54114151,
      "longitude": 126.87667847
    },
    {
      "id": "755",
      "name": "755. 목동1단지아파트 상가 앞",
      "address": "양천구 목동서로 38",
      "latitude": 37.5378685,
      "longitude": 126.88140869
    },
    {
      "id": "756",
      "name": "756. 목동주차장",
      "address": "양천구 목동동로 298",
      "latitude": 37.52667999,
      "longitude": 126.8761673
    },
    {
      "id": "757",
      "name": "757. 신정이펜하우스 1단지아파트 입구 사거리",
      "address": "양천구 신정이펜1로 99",
      "latitude": 37.51427841,
      "longitude": 126.82874298
    },
    {
      "id": "758",
      "name": "758. 한사랑교회 앞",
      "address": "양천구 목동동로 33",
      "latitude": 37.51472092,
      "longitude": 126.85919952
    },
    {
      "id": "759",
      "name": "759. 보아스아파트 앞",
      "address": "양천구 오목로3길 32",
      "latitude": 37.52407074,
      "longitude": 126.83860016
    },
    {
      "id": "760",
      "name": "760. 잣절보도육교 아래",
      "address": "양천구 남부순환로 699",
      "latitude": 37.50682068,
      "longitude": 126.84429932
    },
    {
      "id": "762",
      "name": "762. 오목로 무중력지대 앞",
      "address": "양천구 신목로 126",
      "latitude": 37.52474213,
      "longitude": 126.87766266
    },
    {
      "id": "763",
      "name": "763. 목동11단지 아파트",
      "address": "목동동로 10",
      "latitude": 37.51065826,
      "longitude": 126.85916138
    },
    {
      "id": "765",
      "name": "765. 오목교역 3번출구",
      "address": "서울특별시 양천구 목동동로 270",
      "latitude": 37.52477646,
      "longitude": 126.87548065
    },
    {
      "id": "767",
      "name": "767. 신정숲속마을아파트",
      "address": "양천구 신정로 110",
      "latitude": 37.50574493,
      "longitude": 126.83631134
    },
    {
      "id": "768",
      "name": "768. 목동5단지아파트 501동",
      "address": "양천구 목동",
      "latitude": 37.53566742,
      "longitude": 126.88158417
    },
    {
      "id": "769",
      "name": "769. CBS방송국 앞",
      "address": "양천구 목동 917-1",
      "latitude": 37.52785492,
      "longitude": 126.87467194
    },
    {
      "id": "770",
      "name": "770. 목동역5번출구",
      "address": "양천구 목동로 186",
      "latitude": 37.52571487,
      "longitude": 126.86486816
    },
    {
      "id": "771",
      "name": "771. 목동아파트 703동 앞",
      "address": "양천구 목동로 186",
      "latitude": 37.52820587,
      "longitude": 126.87016296
    },
    {
      "id": "773",
      "name": "773. 염창역 3, 4번 출구 사이",
      "address": "공항대로 630",
      "latitude": 37.54670715,
      "longitude": 126.87457275
    },
    {
      "id": "774",
      "name": "774. 등촌역 4번 출구",
      "address": "양천구 목동 603-2",
      "latitude": 37.54950714,
      "longitude": 126.86721802
    },
    {
      "id": "775",
      "name": "775. 세종그랑시아 앞(102동)",
      "address": "양천구 목동중앙남로3가길 59",
      "latitude": 37.53837585,
      "longitude": 126.86383057
    },
    {
      "id": "776",
      "name": "776. 목마공원",
      "address": "양평교 하부",
      "latitude": 37.53874207,
      "longitude": 126.88568115
    },
    {
      "id": "777",
      "name": "777. 신월6차보람아파트 앞",
      "address": "양천구 곰달래로7길 7",
      "latitude": 37.52988815,
      "longitude": 126.83500671
    },
    {
      "id": "779",
      "name": "779. 신정1동 주민센터 앞",
      "address": "양천구 중앙로 250",
      "latitude": 37.51854324,
      "longitude": 126.85388184
    },
    {
      "id": "781",
      "name": "781. 신정보도육교 아래",
      "address": "양천구 신목로 10",
      "latitude": 37.51759338,
      "longitude": 126.8765564
    },
    {
      "id": "782",
      "name": "782. 서남병원 후문",
      "address": "양천구 신정이펜1로 20",
      "latitude": 37.51167297,
      "longitude": 126.83274078
    },
    {
      "id": "785",
      "name": "785. 양천구청, 보건소 사잇길",
      "address": "양천구 신정동 321-8",
      "latitude": 37.51747513,
      "longitude": 126.86632538
    },
    {
      "id": "786",
      "name": "786. 목동아파트 8단지 상가동 앞",
      "address": "양천구 목동서로 280",
      "latitude": 37.52006912,
      "longitude": 126.86831665
    },
    {
      "id": "787",
      "name": "787. 양천아파트 입구",
      "address": "양천구 목동로3길 41",
      "latitude": 37.50790405,
      "longitude": 126.86264801
    },
    {
      "id": "788",
      "name": "788. 양천구청역 2번출구 옆",
      "address": "양천구 목동로3길 57",
      "latitude": 37.51228714,
      "longitude": 126.86528015
    },
    {
      "id": "791",
      "name": "791. 현대하이페리온",
      "address": "오목로300(205동앞 서쪽방향)",
      "latitude": 37.52490234,
      "longitude": 126.86980438
    },
    {
      "id": "792",
      "name": "792. 목동트라팰리스 웨스턴에비뉴",
      "address": "오목로299(이마트 출입구측)",
      "latitude": 37.52537155,
      "longitude": 126.8709259
    },
    {
      "id": "793",
      "name": "793. 목동5단지아파트 534동",
      "address": "서울특별시 양천구 목동동로 350 목동신시가지아파트5단지",
      "latitude": 37.53302002,
      "longitude": 126.87789917
    },
    {
      "id": "794",
      "name": "794. 양천문화회관",
      "address": "양천구 신정동 323-1",
      "latitude": 37.51686478,
      "longitude": 126.86296082
    },
    {
      "id": "795",
      "name": "795. 양천 해누리타운",
      "address": "양천구 신정동 327-4",
      "latitude": 37.51584244,
      "longitude": 126.86411285
    },
    {
      "id": "796",
      "name": "796. 목동아파트 14단지 B상가 앞",
      "address": "양천구 신정동 330",
      "latitude": 37.5146637,
      "longitude": 126.87194061
    },
    {
      "id": "797",
      "name": "797. 목동아파트 1422동 1434동 사잇길",
      "address": "양천구 신정동 332-2",
      "latitude": 37.51515579,
      "longitude": 126.87248993
    },
    {
      "id": "800",
      "name": "800. 목월공원 앞",
      "address": "서울특별시 용산구 원효로4가 109-10 목월공원 앞",
      "latitude": 37.53243256,
      "longitude": 126.95474243
    },
    {
      "id": "802",
      "name": "802. 한강진역 2번 출구 앞",
      "address": "서울특별시 용산구 한남동 726-494 한강진역 2번 출구 앞",
      "latitude": 37.54115295,
      "longitude": 127.00221252
    },
    {
      "id": "805",
      "name": "805. 문배어린이공원 앞",
      "address": "서울특별시 용산구 문배동 34-10 문배어린이공원 앞",
      "latitude": 37.53675842,
      "longitude": 126.97000122
    },
    {
      "id": "806",
      "name": "806. 전자랜드 본관 앞",
      "address": "서울특별시 용산구 한강로3가 16-8 전자랜드 본관 앞",
      "latitude": 37.5330658,
      "longitude": 126.96073151
    },
    {
      "id": "807",
      "name": "807. 서울역 12번 출구 앞",
      "address": "서울특별시 용산구 동자동 14-229 서울역 12번 출구 앞",
      "latitude": 37.55227661,
      "longitude": 126.97268677
    },
    {
      "id": "808",
      "name": "808. 서빙고동 금호맨션 앞",
      "address": "서울특별시 용산구 서빙고동 235-5 서빙고동 금호맨션 앞",
      "latitude": 37.520504,
      "longitude": 126.98973846
    },
    {
      "id": "809",
      "name": "809. 한남 유수지 복개주차장",
      "address": "서울특별시 용산구 독서당로 18 한남 유수지 복개주차장",
      "latitude": 37.53016663,
      "longitude": 127.00743866
    },
    {
      "id": "810",
      "name": "810. 이태원지하보도",
      "address": "서울특별시 용산구 용산동2가 5-1812 이태원지하보도",
      "latitude": 37.53841019,
      "longitude": 126.98664856
    },
    {
      "id": "811",
      "name": "811. 녹사평역1번출구",
      "address": "서울특별시 용산구 용산동2가 6-7 녹사평역1번출구",
      "latitude": 37.53507996,
      "longitude": 126.98538208
    },
    {
      "id": "813",
      "name": "813. 삼각지역 3번출구",
      "address": "서울특별시 용산구 한강로1가 228-1 삼각지역 3번출구",
      "latitude": 37.53351212,
      "longitude": 126.97227478
    },
    {
      "id": "815",
      "name": "815. LIG강촌아파트 103동앞",
      "address": "서울특별시 용산구 이촌동301-5 LIG강촌아파트 103동앞",
      "latitude": 37.51850891,
      "longitude": 126.97879791
    },
    {
      "id": "816",
      "name": "816. 신용산역 6번출구 앞",
      "address": "서울특별시 용산구 한강대로 115 신용산역 6번출구 앞",
      "latitude": 37.53014755,
      "longitude": 126.96848297
    },
    {
      "id": "817",
      "name": "817. 삼각지역 4번출구 앞",
      "address": "서울특별시 용산구 한강대로 161 삼각지역 4번출구 앞",
      "latitude": 37.53345108,
      "longitude": 126.97173309
    },
    {
      "id": "818",
      "name": "818. 숙명여대 입구 교차로",
      "address": "서울특별시 용산구 청파로47길 100 숙명여대 입구 교차로",
      "latitude": 37.54489517,
      "longitude": 126.96938324
    },
    {
      "id": "819",
      "name": "819. 선린인터넷 고등학교",
      "address": "서울특별시 용산구 원효로97길 33-4 선린인터넷 고등학교",
      "latitude": 37.54165268,
      "longitude": 126.97050476
    },
    {
      "id": "820",
      "name": "820. 청파동입구 교차로",
      "address": "서울특별시 용산구 한강대로 349 청파동입구 교차로",
      "latitude": 37.54902649,
      "longitude": 126.97194672
    },
    {
      "id": "822",
      "name": "822. 이촌1동 마을공원",
      "address": "서울특별시 용산구 이촌로 219 이촌1동 마을공원",
      "latitude": 37.52202606,
      "longitude": 126.96618652
    },
    {
      "id": "823",
      "name": "823. 효창동주민센터 앞",
      "address": "서울특별시 용산구 효창원로 161 효창동주민센터 앞",
      "latitude": 37.54232025,
      "longitude": 126.96195984
    },
    {
      "id": "825",
      "name": "825. 서빙고동 주민센터 앞",
      "address": "서울특별시 용산구 서빙고로 279 서빙고동 주민센터 앞",
      "latitude": 37.52033615,
      "longitude": 126.9942627
    },
    {
      "id": "826",
      "name": "826. 서울역 서부교차로2",
      "address": "서울특별시 중구 퇴계로 33 서울역 서부교차로2",
      "latitude": 37.55536652,
      "longitude": 126.96864319
    },
    {
      "id": "827",
      "name": "827. 국군복지단",
      "address": "서울특별시 용산구 두텁바위로 54-99 국군복지단",
      "latitude": 37.54151535,
      "longitude": 126.97951508
    },
    {
      "id": "828",
      "name": "828. 숙대입구역 8번",
      "address": "서울특별시 용산구 한강대로 289 숙대입구역 8번",
      "latitude": 37.54407883,
      "longitude": 126.97200012
    },
    {
      "id": "829",
      "name": "829. 한강대교 북단 교차로",
      "address": "서울특별시 용산구 한강대로 23 베르가모앞",
      "latitude": 37.52293015,
      "longitude": 126.96169281
    },
    {
      "id": "830",
      "name": "830. 강변삼성스위트아파트 앞",
      "address": "서울특별시 용산구 원효로 35 청암자이아파트앞",
      "latitude": 37.53442383,
      "longitude": 126.94857025
    },
    {
      "id": "832",
      "name": "832. 이촌1동 주민센터 뒤",
      "address": "서울특별시 용산구 이촌로71길 24 이촌1동 주민센터 뒤",
      "latitude": 37.5212822,
      "longitude": 126.97346497
    },
    {
      "id": "834",
      "name": "834. 효창공원앞역 3번출구 앞",
      "address": "서울특별시 용산구 백범로 지하 287 효창공원앞역 3번출구 뒤",
      "latitude": 37.53900146,
      "longitude": 126.96181488
    },
    {
      "id": "835",
      "name": "835. 남영역 건너편",
      "address": "서울특별시 용산구 한강대로77길 18 남영역 건너편",
      "latitude": 37.54198074,
      "longitude": 126.97154236
    },
    {
      "id": "836",
      "name": "836. 현대자동차서비스 앞",
      "address": "서울특별시 용산구 원효로 74 현대자동차서비스 앞",
      "latitude": 37.53142166,
      "longitude": 126.95149994
    },
    {
      "id": "837",
      "name": "837. 한남나들목 입구",
      "address": "서울특별시 용산구 서빙고로 417 한남나들목 입구",
      "latitude": 37.52898788,
      "longitude": 127.00662231
    },
    {
      "id": "838",
      "name": "838. 숙대입구역 4번출구",
      "address": "서울특별시 용산구 한강대로 지하 306 숙대입구역 4번출구",
      "latitude": 37.54464722,
      "longitude": 126.97234344
    },
    {
      "id": "839",
      "name": "839. 보광동 삼성리버빌아파트 앞",
      "address": "서울특별시 용산구 보광로5길 40 보광동 삼성리버빌아파트 앞",
      "latitude": 37.5240097,
      "longitude": 127.00144958
    },
    {
      "id": "840",
      "name": "840. 용산 파크타워 앞",
      "address": "서울특별시 용산구 서빙고로 67 용산 파크타워 앞",
      "latitude": 37.52365112,
      "longitude": 126.97026825
    },
    {
      "id": "841",
      "name": "841. 신용산역 1번 출구",
      "address": "서울특별시 용산구 한강대로 100 신용산역 1번 출구",
      "latitude": 37.52960968,
      "longitude": 126.96887207
    },
    {
      "id": "843",
      "name": "843. 이태원관광특구 입구(용산구청방향)",
      "address": "서울특별시 용산구 이태원로 134 녹사평역 광장",
      "latitude": 37.53379822,
      "longitude": 126.98867035
    },
    {
      "id": "844",
      "name": "844. 이촌2동 동원베네스트 아파트 앞",
      "address": "서울특별시 용산구 이촌로14길 7 이촌2동 동원베네스트 아파트 앞",
      "latitude": 37.5271492,
      "longitude": 126.95516205
    },
    {
      "id": "845",
      "name": "845. 용산 선인상가",
      "address": "서울특별시 용산구 새창로 181 선인상가",
      "latitude": 37.53269958,
      "longitude": 126.96437836
    },
    {
      "id": "846",
      "name": "846. 용산중학교",
      "address": "서울특별시 용산구 두텁바위로 74 용산중학교",
      "latitude": 37.54650116,
      "longitude": 126.9809494
    },
    {
      "id": "848",
      "name": "848. 삼각지12번 출구",
      "address": "서울특별시 용산구 이태원로 29 전쟁기념관",
      "latitude": 37.53488922,
      "longitude": 126.97562408
    },
    {
      "id": "849",
      "name": "849. 삼각지 자이아파트",
      "address": "서울특별시 용산구 한강대로 205 용산파크자이",
      "latitude": 37.53607941,
      "longitude": 126.97341919
    },
    {
      "id": "850",
      "name": "850. KCC용산웰츠(WELLTZ)타워",
      "address": "서울특별시 용산구 백범로90길 34 구두수선대",
      "latitude": 37.53739929,
      "longitude": 126.96892548
    },
    {
      "id": "851",
      "name": "851. 효창 푸르지오 앞",
      "address": "서울특별시 용산구 백범로 260 효창파크 푸르지오",
      "latitude": 37.54047775,
      "longitude": 126.95811462
    },
    {
      "id": "852",
      "name": "852. 청암자이아파트 앞",
      "address": "서울특별시 용산구 삼개로 60 천년명가 청암자이",
      "latitude": 37.53452682,
      "longitude": 126.9471817
    },
    {
      "id": "853",
      "name": "853. 용산역 맞은편",
      "address": "서울특별시 용산구 한강로2가 408-5",
      "latitude": 37.52841568,
      "longitude": 126.96595001
    },
    {
      "id": "854",
      "name": "854. HID 유족동지회 앞",
      "address": "서울특별시 용산구 이태원로 287 6호선 한강진역",
      "latitude": 37.53850937,
      "longitude": 127.0014801
    },
    {
      "id": "855",
      "name": "855. 이촌역5번출구 앞",
      "address": "서울특별시 용산구 서빙고로 83 4호선 이촌역",
      "latitude": 37.52272415,
      "longitude": 126.97277069
    },
    {
      "id": "857",
      "name": "857. 현대 안성타워",
      "address": "서울특별시 용산구 이태원로 261-1 구두수선대",
      "latitude": 37.53508759,
      "longitude": 126.99797058
    },
    {
      "id": "858",
      "name": "858. 녹사평역3번 출구",
      "address": "서울특별시 용산구 용산동4가 10-4",
      "latitude": 37.53440857,
      "longitude": 126.9868927
    },
    {
      "id": "859",
      "name": "859. 남산공원 야외식물원 앞",
      "address": "서울특별시 용산구 이태원동 259-16",
      "latitude": 37.54188538,
      "longitude": 126.99586487
    },
    {
      "id": "860",
      "name": "860. LG한강 자이아파트 앞",
      "address": "서울특별시 용산구 이촌동 429",
      "latitude": 37.52074814,
      "longitude": 126.9708252
    },
    {
      "id": "863",
      "name": "863. 이촌역2번 출구",
      "address": "서울특별시 용산구 용산동5가 17",
      "latitude": 37.52177048,
      "longitude": 126.977005
    },
    {
      "id": "864",
      "name": "864. 순천향대학병원(한남오거리)",
      "address": "서울특별시 용산구 한남동 704-11",
      "latitude": 37.53514099,
      "longitude": 127.00600433
    },
    {
      "id": "866",
      "name": "866. 브라운스톤 남산아파트",
      "address": "서울특별시 용산구 후암로 65 브라운스톤 남산아파트",
      "latitude": 37.551548,
      "longitude": 126.97686005
    },
    {
      "id": "867",
      "name": "867. 서빙고역 광장(1번출구)",
      "address": "서울특별시 용산구 서빙고동 241-37",
      "latitude": 37.51990891,
      "longitude": 126.98923492
    },
    {
      "id": "869",
      "name": "869. 노들섬 동측 앞",
      "address": "서울특별시 용산구 이촌동 303-8",
      "latitude": 37.51729584,
      "longitude": 126.95914459
    },
    {
      "id": "870",
      "name": "870. 노들섬 서측 앞",
      "address": "서울특별시 용산구 이촌동 304-11",
      "latitude": 37.51731873,
      "longitude": 126.95829773
    },
    {
      "id": "900",
      "name": "900. 은평예술회관",
      "address": "서울특별시 은평구 녹번동 85-4 은평예술회관",
      "latitude": 37.60394287,
      "longitude": 126.92769623
    },
    {
      "id": "902",
      "name": "902. 진관동 은빛초등학교",
      "address": "서울특별시 은평구 진관동 45-21 진관동 은빛초등학교",
      "latitude": 37.64310837,
      "longitude": 126.91822052
    },
    {
      "id": "903",
      "name": "903. 은평뉴타운 아이파크",
      "address": "서울특별시 은평구 진관동 13-20 은평뉴타운 아이파크",
      "latitude": 37.64586639,
      "longitude": 126.92739105
    },
    {
      "id": "904",
      "name": "904. 은평뉴타운 푸르지오",
      "address": "서울특별시 은평구 진관동 5-8 은평뉴타운 푸르지오",
      "latitude": 37.64867401,
      "longitude": 126.93070221
    },
    {
      "id": "905",
      "name": "905. 구파발역 2번출구",
      "address": "서울특별시 은평구 진관동 86-31 구파발역 2번출구",
      "latitude": 37.63623428,
      "longitude": 126.91899872
    },
    {
      "id": "906",
      "name": "906. 연신내역 5번출구",
      "address": "서울특별시 은평구 대조동 207-8 연신내역 5번출구",
      "latitude": 37.61721039,
      "longitude": 126.91957855
    },
    {
      "id": "907",
      "name": "907. CJ 드림시티",
      "address": "서울특별시 은평구 역촌동 43-11 CJ 드림시티",
      "latitude": 37.59949493,
      "longitude": 126.91698456
    },
    {
      "id": "908",
      "name": "908. 구산역 4번출구",
      "address": "서울특별시 은평구 갈현동 536-8 구산역 4번출구",
      "latitude": 37.61318588,
      "longitude": 126.91735077
    },
    {
      "id": "909",
      "name": "909. 백련산 힐스테이트 3차",
      "address": "서울특별시 은평구 응암동 761-9 백련산 힐스테이트 3차",
      "latitude": 37.58699417,
      "longitude": 126.92288208
    },
    {
      "id": "911",
      "name": "911. 은평평화공원(역촌역4번출구)",
      "address": "서울특별시 은평구 녹번동 153-31 은평평화공원(역촌역4번출구)",
      "latitude": 37.60558319,
      "longitude": 126.92293549
    },
    {
      "id": "912",
      "name": "912. 응암오거리",
      "address": "서울특별시 은평구 응암동 604-5 응암오거리",
      "latitude": 37.58966064,
      "longitude": 126.91694641
    },
    {
      "id": "913",
      "name": "913. 이마트 버스정류장(서부경찰서 방면)",
      "address": "서울특별시 은평구 응암동 90-15 이마트 은평점",
      "latitude": 37.60070038,
      "longitude": 126.92012787
    },
    {
      "id": "914",
      "name": "914. 새절역 2번출구",
      "address": "서울특별시 은평구 응암동 610-3 새절역 2번출구",
      "latitude": 37.59080887,
      "longitude": 126.91368866
    },